id,name,coordinates.lon,coordinates.lat,type,status,district
662b86c41afb9c00172dd31c,Trần Quang Khải - Trần Khắc Chân,106.691054105759,10.7918902432446,tth,UP,Quận 1
5a6065c58576340017d06615,Tô Ngọc Vân - TX25,106.677986383438,10.8797100979598,tth,UP,Quận 12
6623f4df6f998a001b2528eb,Quốc Lộ 13 - cầu Ông Dầu,106.713809967041,10.8361932799182,tth,UP,Thành phố Thủ Đức
662b7ce71afb9c00172dc676,Cách Mạng Tháng Tám - Bùi Thị Xuân,106.691064834595,10.7726452614037,tth,UP,Quận 1
583f969161cfea0012cf68f7,Nguyễn Thị Định - Đường D,106.781423091888,10.7646823693643,tth,UP,Thành phố Thủ Đức
59ca317602eb490011a0a408,QL1 - Tỉnh lộ 10 B (2),106.593974232674,10.7492355507977,tth,UP,Quận Bình Tân
6623e8da6f998a001b2524a6,Phan Đăng Lưu - Thích Quảng Đức,106.684530973434,10.8032933150268,tth,UP,Quận Phú Nhuận
56de42f611f398ec0c481299,Võ Văn Kiệt - An Dương Vương 2,106.620351076126,10.7265671915496,tth,UP,Quận 8
66b1c426779f74001867415e,Điện Biên Phủ - Nguyễn Gia Trí,106.715161800385,10.8010801833774,tth,UP,Quận Bình Thạnh
6623f1046f998a001b2527db,Lũy Bán Bích - Thoại Ngọc Hầu,106.636122465134,10.7821519725547,tth,UP,Quận Tân Phú
5d9de4de766c880017188cbb,Cao tốc LTDG - Võ Chí Công,106.790762543678,10.796827763223,tth,UP,Thành phố Thủ Đức
6623f44f6f998a001b2528aa,Võ Nguyên Giáp - Đỗ Xuân Hợp (1),106.765716075897,10.8349709243101,tth,UP,Thành phố Thủ Đức
662a881a1afb9c00172d2559,Kinh Dương Vương - Tên Lửa,106.61497592926,10.7380517925754,tth,UP,Quận Bình Tân
662b4ecb1afb9c00172d8692,Nguyễn Chí Thanh - Thuận Kiều,106.658009290695,10.7576784340111,tth,UP,Quận 11
5deb576d1dc17d7c5515ad15,Lý Tự Trọng - Chu Mạnh Trinh,106.704602,10.781944,tth,UP,Quận 1
5b8b2323ca057700116405d0,Trường Sơn - Ga Quốc Nội 2,106.664902567863,10.8129465937096,tth,UP,Quận Tân Bình
63ae7a50bfd3d90017e8f2b2,Ba Tháng Hai – Sư Vạn Hạnh,106.670830249786,10.7697784337206,tth,UP,Quận 10
587ee0ecb807da0011e33d50,Phan Đăng Lưu - Lê Văn Duyệt,106.696482896805,10.8019970541825,tth,UP,Quận Bình Thạnh
56de42f611f398ec0c48128f,Võ Văn Kiệt - Huỳnh Mẫn Đạt,106.677197813988,10.751960277381,tth,UP,Quận 5
56de42f611f398ec0c4812a2,Nút giao Mỹ Thủy 2,106.7755866,10.7701157,tth,UP,Thành phố Thủ Đức
63bd1f21bfd3d90017ec3d04,Huỳnh Tấn Phát - Phạm Hữu Lầu,106.737660169601,10.7052043577961,tth,UP,Quận 7
58df4d95dc195800111e04b9,Phổ Quang - Hoàng Minh Giám,106.672879457474,10.8079619154301,tth,UP,Quận Phú Nhuận
586e28a0f9fab7001111b0b3,Quốc lộ 1 - KCX Linh Trung 1,106.768741607666,10.872081942303,tth,UP,Thành phố Thủ Đức
5d8cd4ee766c880017188946,Lê Văn Sỹ - Huỳnh Văn Bánh,106.671452522278,10.7918902432446,tth,UP,Quận Phú Nhuận
662b81721afb9c00172dcc44,Đinh Tiên Hoàng - Trần Quang Khải,106.696075201035,10.7927439077816,tth,UP,Quận 1
66b1c3c2779f740018674125,Vòng xoay Mũi Tàu Phú Lâm,106.624095439911,10.7459416028391,tth,UP,Quận 6
5a8269c45058170011f6eae4,Nguyễn Văn Quỳ - Cầu Phú Mỹ,106.7367374897,10.7409610852775,tth,UP,Quận 7
5822adbbedeb6c0012a2d65f,Võ Văn Kiệt - Cầu Chữ Y 1,106.68367266655,10.7519444666594,tth,UP,Quận 5
6623e43e6f998a001b2522cb,Nguyễn Thị Minh Khai - Bà Huyện Thanh Quan,106.690624952316,10.7748059039379,tth,UP,Quận 1
5a823e425058170011f6eaa4,Đinh Tiên Hoàng - Võ Thị Sáu 1,106.695774793625,10.7917743133057,tth,UP,Quận 1
649da72ca6068200171a6dbb,Tôn Đức Thắng - Hàm Nghi,106.70635342598,10.7710748334425,tth,UP,Quận 1
5a6088218576340017d06693,QL1 - Nút giao An Lạc 2,106.601693630219,10.7235049089888,tth,UP,Quận Bình Tân
63b65fd8bfd3d90017eaa461,Lê Văn Duyệt - Vũ Huy Tấn,106.696085929871,10.7956526724414,tth,UP,Quận Bình Thạnh
5deb576d1dc17d7c5515ad08,Cộng Hòa - Tân Kỳ Tân Quý,106.637651324272,10.8041364085074,tth,UP,Quận Tân Bình
587c79e9b807da0011e33d3d,Điện Biên Phủ - Nguyễn Văn Thương 2,106.718965172768,10.7986878751089,tth,UP,Quận Bình Thạnh
63b65ebebfd3d90017eaa3ae,Nguyễn Hữu Cảnh - Ngô Tất Tố 2 (Dạ cầu Thủ Thiêm 1),106.71642780304,10.7891447995017,tth,UP,Quận Bình Thạnh
5874769eb807da0011e33cec,Cộng Hòa - Út Tịch 2,106.657757163048,10.8001053464053,tth,UP,Quận Tân Bình
63b660f8bfd3d90017eaa4ea,Cầu Tân Thuận 2 - Q7 (Q7-Q4),106.723862886429,10.7526506780822,tth,UP,Quận 7
58af994abd82540010390c37,Nguyễn Hữu Cảnh - Tôn Đức Thắng,106.706235408783,10.7826315159924,tth,UP,Quận 1
56df8108c062921100c143db,Hoàng Minh Giám - Hồng Hà,106.674022078514,10.8090315732439,tth,UP,Quận Phú Nhuận
63ae7903bfd3d90017e8f211,Hậu Giang -  Hẻm 491,106.636669635773,10.7483923035435,tth,UP,Quận 6
63ae7727bfd3d90017e8f14a,Hoàng Diệu - Đoàn Văn Bơ 2,106.703719496727,10.7635071530486,tth,UP,Quận 4
6623f36e6f998a001b252878,Phạm Văn Đồng - Kha Vạn Cân 2,106.762282848358,10.8663923069317,tth,UP,Thành phố Thủ Đức
5d9ddec9766c880017188c9c,Nút giao Hàng Xanh 5 (Hàng Xanh - Bạch Đằng),106.711503267288,10.8021551350728,tth,UP,Quận Bình Thạnh
5deb576d1dc17d7c5515ad02,Điện Biên Phủ - Pasteur,106.691552996635,10.7843441648872,tth,UP,Quận 3
63ae79aabfd3d90017e8f26a,Cách Mạng Tháng Tám - Trường Sơn,106.6664904356,10.7858618271433,tth,UP,Quận 10
5d8cd7fb766c880017188954,Phạm Văn Đồng - Đường 20 (hướng đi Sân bay),106.722366213799,10.8291383225836,tth,UP,Thành phố Thủ Đức
63b66089bfd3d90017eaa4bd,Nơ Trang Long - Chu Văn An,106.695753335953,10.8114079914905,tth,UP,Quận Bình Thạnh
63ae798abfd3d90017e8f255,Cách Mạng Tháng Tám - Bắc Hải,106.664623618126,10.7869104851311,tth,UP,Quận 3
662a89f51afb9c00172d26ef,Nguyễn Văn Linh - Trịnh Quang Nghị 2,106.634652614593,10.7024001433989,tth,UP,Huyện Bình Chánh
6318287ec9eae60017a19f36,Nguyễn Thị Minh Khai - Đinh Tiên Hoàng 2,106.701729297638,10.7865626894198,tth,UP,Quận 1
6792f3058c5ed4001b27f58e,Trần Văn Giàu - Cầu Đôi,106.505670547485,10.7937661942221,tth,UP,Huyện Bình Chánh
587476e3b807da0011e33cee,Cộng Hòa - Út Tịch 1,106.657853722572,10.8010380283306,tth,UP,Quận Tân Bình
597bf277faa7ea0011c7c29f,Cầu Phú Hữu 2,106.792302131653,10.8208924000834,tth,UP,Thành phố Thủ Đức
5d9de49d766c880017188cb9,Cao tốc LTDG - Đỗ Xuân Hợp 2,106.778848171234,10.7961796195486,tth,UP,Thành phố Thủ Đức
5d9ddf49766c880017188ca0,Nút giao Hàng Xanh 7 (Hàng Xanh - Cầu Văn Thánh),106.712324023247,10.8012277259948,tth,UP,Quận Bình Thạnh
63ae763bbfd3d90017e8f0c4,Lý Thái Tổ - Nguyễn Đình Chiểu,106.678780317307,10.7662581006404,tth,UP,Quận 10
5d8cda6a766c880017188960,Phạm Văn Đồng - Kha Vạn Cân (hướng đi Sân bay),106.743823885918,10.8411932946322,tth,UP,Thành phố Thủ Đức
662b80e81afb9c00172dcbec,Cách Mạng Tháng Tám - Sương Nguyệt Anh,106.690050959587,10.7730352321784,tth,UP,Quận 1
56df84abc062921100c143e5,Nút giao Nguyễn Thái Sơn 3 (Phạm Văn Đồng),106.679236292839,10.8142217306645,tth,UP,Quận Gò Vấp
662a86a11afb9c00172d2410,Tùng Thiện Vương - Cao Xuân Dục,106.65856719017,10.7456043005395,tth,UP,Quận 8
56de42f611f398ec0c48128b,Võ Văn Kiệt - Nguyễn Văn Cừ 1,106.68691277504,10.7543213358374,tth,UP,Quận 1
58e49ff8d9d6200011e0b9d4,Nam Kỳ Khởi Nghĩa - Trần Quốc Toản,106.687223911285,10.7863150164711,tth,UP,Quận 3
5a8241105058170011f6eaa6,Đinh Tiên Hoàng - Võ Thị Sáu 2,106.695785522461,10.7919218604929,tth,UP,Quận 1
65e054fb6b18080018db6632,Lê Duẩn - Mạc Đĩnh Chi,106.701187491417,10.7832164525575,tth,UP,Quận 1
5a825ded5058170011f6ead7,Quốc lộ 50 - Cầu Ông Thìn (2),106.655831336975,10.6484508725221,tth,UP,Huyện Bình Chánh
5d8cdb0a766c880017188964,Trường Chinh - Xuân Hồng,106.651657819748,10.7937134991298,tth,UP,Quận Tân Bình
5a6082698576340017d06678,QL1 - Trạm thu phí AS-AL 2,106.59654378891,10.7947673992211,tth,UP,Quận Bình Tân
6792efe48c5ed4001b27f336,Xa Lộ Hà Nội - Cổng ĐH An ninh,106.808030605316,10.8735359428243,tth,UP,Thành phố Thủ Đức
63b5503bbfd3d90017ea7ccc,Nút giao Mỹ Thủy (7),106.775082349777,10.7697468141455,tth,UP,Thành phố Thủ Đức
662a873b1afb9c00172d2483,Võ Trần Chí - Trần Văn Giàu 1,106.581823825836,10.7489509551128,tth,UP,Quận Bình Tân
66b1c3fa779f740018674146,Nguyễn Hữu Cảnh - Ung Văn Khiêm,106.723707318306,10.7991305062692,tth,UP,Quận Bình Thạnh
5ad0621c98d8fc001102e268,Lý Tự Trọng - Hai Bà Trưng 2,106.702335476875,10.779137682017,tth,UP,Quận 1
66b1c34d779f74001867409e,Ba Tháng Hai - Thành Thái,106.666828393936,10.768197450899,tth,UP,Quận 10
56de42f611f398ec0c48128c,Võ Văn Kiệt - Nguyễn Văn Cừ 2,106.6864407,10.7536415,tth,UP,Quận 5
662b558c1afb9c00172d8ed2,625 Quang Trung,106.663491725922,10.8351289878163,tth,UP,Quận Gò Vấp
6623f4836f998a001b2528bf,Võ Nguyên Giáp - Đỗ Xuân Hợp (2),106.765801906586,10.8354978023394,tth,UP,Thành phố Thủ Đức
662b85bf1afb9c00172dd149,Nam Kỳ Khởi Nghĩa - Hàm Nghi,106.701128482819,10.7709694352995,tth,UP,Quận 1
63b3c274bfd3d90017e9ab93,Hồng Bàng - Phù Đổng Thiên Vương,106.662520766258,10.7546955197447,tth,UP,Quận 5
63b54bcdbfd3d90017ea7a82,Tỉnh lộ 43 - KCX Linh Trung 2,106.718090772629,10.8960825794088,tth,UP,Thành phố Thủ Đức
662b81a31afb9c00172dcc65,Nam Kỳ Khởi Nghĩa - Võ Văn Tần,106.693907976151,10.7805394362678,tth,UP,Quận 3
63ae7b3cbfd3d90017e8f34d,Ba Tháng Hai - Lý Thường Kiệt 3,106.659817099571,10.7644610285251,tth,UP,Quận 10
6318283cc9eae60017a19f0c,Nguyễn Thị Minh Khai - Đinh Tiên Hoàng 1,106.701568365097,10.7866101161314,tth,UP,Quận 1
5deb576d1dc17d7c5515acf6,Nút giao Ngã sáu Cộng Hòa,106.681205,10.765389,tth,UP,Quận 10
58746488b807da0011e33cd7,Cầu vượt Sóng Thần 2,106.748507022858,10.8743050851613,tth,UP,Tỉnh Bình Dương
662b83381afb9c00172dcf88,Hai Bà Trưng - Nguyễn Đình Chiểu,106.695957183838,10.7846919631639,tth,UP,Quận 1
63b660d8bfd3d90017eaa4d5,Cầu Tân Thuận 2 - Q7 (Q4-Q7),106.723691225052,10.7527666230832,tth,UP,Quận 7
63ae7be0bfd3d90017e8f3a8,Ba Tháng Hai - Lê Đại Hành 1,106.657199263573,10.7621527500863,tth,UP,Quận 11
63b54a04bfd3d90017ea783e,Lê Văn Việt - Hoàng Hữu Nam,106.813673973084,10.8502078623705,tth,UP,Thành phố Thủ Đức
63b54f70bfd3d90017ea7c86,Cầu Sài Gòn (10),106.726276874542,10.7985614089434,tth,UP,Quận Bình Thạnh
5a8267fe5058170011f6eae1,Lê Văn Lương - Cầu Rạch Đĩa,106.697700619698,10.7235786992945,tth,UP,Huyện Nhà Bè
58746122b807da0011e33cc5,Quốc lộ 1 - ĐH Nông Lâm 2,106.787940859795,10.8672299545045,tth,UP,Thành phố Thủ Đức
63ae768dbfd3d90017e8f0f1,Khánh Hội - Vĩnh Hội,106.701278686523,10.7560025246799,tth,UP,Quận 4
662a89ae1afb9c00172d26ad,Nguyễn Văn Linh - Trịnh Quang Nghị,106.633536815643,10.7028218314316,tth,UP,Huyện Bình Chánh
63b54a70bfd3d90017ea7862,Lã Xuân Oai - Đường D2,106.804490089417,10.830049838744,tth,UP,Thành phố Thủ Đức
58e49783d9d6200011e0b9ce,Trường Chinh - Phan Văn Hớn 2 (HM-Q12),106.624760627747,10.8274733494884,tth,UP,Quận 12
5deb576d1dc17d7c5515ad0c,Nút giao Ngã sáu Phù Đổng 1,106.693342,10.771135,tth,UP,Quận 1
6623ef776f998a001b252768,Quốc Lộ 22 - Nguyễn Thị Sóc,106.602745056152,10.8616719345273,tth,UP,Huyện Hóc Môn
58d7bbf2c1e33c00112b3216,Quốc lộ 1 - Đinh Đức Thiện 2,106.570794582367,10.6656266937569,tth,UP,Huyện Bình Chánh
662b51d21afb9c00172d89bf,Tên Lửa - Đường số 7,106.610255241394,10.7521974381054,tth,UP,Quận Bình Tân
58746295b807da0011e33ccb,Quốc lộ 1 - Bình Đường,106.758962273598,10.8752217316573,tth,UP,Thành phố Thủ Đức
585b2baec3f96200127dc508,Nguyễn Văn Linh - Huỳnh Tấn Phát 2,106.728331446648,10.7525452734972,tth,UP,Quận 7
5a606cd08576340017d06628,BX Miền Đông - Đinh Bộ Lĩnh 2,106.71005487442,10.8144114199963,tth,UP,Quận Bình Thạnh
662b80051afb9c00172dcaf6,Nguyễn Trãi - Nguyễn Cư Trinh,106.686580181122,10.7625269242757,tth,UP,Quận 1
589d0bceb3bf7600110283d6,Cầu Sài Gòn 2 (dạ cầu),106.727387309074,10.7990303873734,tth,UP,Thành phố Thủ Đức
587ee2aeb807da0011e33d52,Phan Đăng Lưu - Phan Xích Long,106.683232784271,10.8020392090947,tth,UP,Quận Phú Nhuận
662b5bc31afb9c00172d92e2,Lê Trọng Tấn - Đường Kênh 19/5,106.615083217621,10.8093424582973,tth,UP,Quận Tân Phú
662b58401afb9c00172d90f5,Hoàng Văn Thụ - Bùi Thị Xuân,106.661823391914,10.8006480938667,tth,UP,Quận Tân Bình
5874644cb807da0011e33cd5,Cầu vượt Sóng Thần 1,106.750985383987,10.8758064874328,tth,UP,Thành phố Thủ Đức
662b867b1afb9c00172dd250,Trần Hưng Đạo - Ký Con,106.696676015854,10.7692988698081,tth,UP,Quận 1
597bf0b8faa7ea0011c7c293,Cầu Phú Hữu 1,106.791679859161,10.8163926125139,tth,UP,Thành phố Thủ Đức
5a10c79f02eb490011a0b0dd,Mai Chí Thọ - Tố Hữu (C6),106.716717481613,10.7713172490313,tth,UP,Thành phố Thủ Đức
662b83ff1afb9c00172dcffb,Lê Duẩn - Phạm Ngọc Thạch,106.698188781738,10.7805078178228,tth,UP,Quận 1
5deb576d1dc17d7c5515ad19,Nguyễn Thị Minh Khai - Mạc Đĩnh Chi,106.699659,10.784426,tth,UP,Quận 1
5b6329fdfd4edb0019c7dc0b,Nguyễn Trãi - Nguyễn Văn Cừ,106.684375405312,10.7596494601112,tth,UP,Quận 1
589add0fb3bf7600110283ae,Tô Ký (Tỉnh lộ 15) - Đông Bắc,106.623339056969,10.8556133114939,tth,UP,Quận 12
5deb576d1dc17d7c5515ad01,Võ Thị Sáu - Hai Bà Trưng,106.691815853119,10.7878590168447,tth,UP,Quận 3
58abbf72bd82540010390ba4,Cầu Sài Gòn 9 (Bình Thạnh - Thủ Đức),106.726319789886,10.7985614089434,tth,UP,Quận Bình Thạnh
6623f1f16f998a001b25281f,Phạm Văn Đồng - Đào Trinh Nhất,106.759042739868,10.865064709737,tth,UP,Thành phố Thủ Đức
58ad6961bd82540010390be5,Nút giao Phú Nhuận 1 (Phan Đình Phùng),106.680378913879,10.7990461956223,tth,UP,Quận Phú Nhuận
5a8257e25058170011f6eacd,Hoàng Hữu Nam - Đường D400,106.814097762108,10.8700853140978,tth,UP,Thành phố Thủ Đức
5a606dbc8576340017d0662b,Điện Biên Phủ - Nguyễn Hữu Cảnh,106.721127033234,10.7978184191454,tth,UP,Quận Bình Thạnh
662b52a31afb9c00172d8b01,Lê Đức Thọ - Hẻm 688,106.670604944229,10.846467192202,tth,UP,Quận Gò Vấp
58abbee5bd82540010390ba2,Cầu Sài Gòn 5 (dạ cầu Thủ Đức),106.729398965836,10.7991621227557,tth,UP,Thành phố Thủ Đức
662a8ef41afb9c00172d2af2,Lê Văn Lương - Đường số 15,106.704325675964,10.7449876687987,tth,UP,Quận 7
6623f5b56f998a001b25292f,Võ Nguyên Giáp - quay đầu An Phú (2),106.746608018875,10.8022710610062,tth,UP,Thành phố Thủ Đức
66b1c398779f7400186740e3,Ba Tháng Hai - Tạ Uyên,106.653256416321,10.7601975506409,tth,UP,Quận 11
6623e31e6f998a001b252250,Kỳ Đồng - Bà Huyện Thanh Quan,106.681677103043,10.7816671586319,tth,UP,Quận 3
5deb576d1dc17d7c5515acfe,Lý Chính Thắng - Trương Định,106.683688759804,10.7825155824841,tth,UP,Quận 3
6792f3cf8c5ed4001b27f61e,Tỉnh Lộ 8 - Cầu Phú Cường,106.643643379211,10.9771309811361,tth,UP,Huyện Củ Chi
58df4e22dc195800111e04bb,Yên Thế - Bạch Đằng,106.668593287468,10.8141637700114,tth,UP,Quận Tân Bình
58d7b3e8c1e33c00112b3207,Quốc lộ 1 - Nguyễn Văn Linh,106.595363616943,10.6901498501196,tth,UP,Huyện Bình Chánh
5d8cdc57766c88001718896e,Lý Thường Kiệt - Lạc Long Quân,106.652473211288,10.7904463853615,tth,UP,Quận Tân Bình
66f1266f538c780017c93579,Hùng Vương - Nguyễn Chí Thanh,106.67405962944,10.760766720521,tth,UP,Quận 5
5ad0679598d8fc001102e274,Lê Văn Việt - Man Thiện,106.786707043648,10.8452343413582,tth,UP,Thành phố Thủ Đức
5a824b6c5058170011f6eaab,Nút giao Bốn Xã 3 (Lê Văn Quới),106.621397137642,10.773841521503,tth,UP,Quận Bình Tân
6623f0576f998a001b2527ac,Âu Cơ - Thoại Ngọc Hầu,106.641583442688,10.7859250629045,tth,UP,Quận Tân Phú
62da3e840637a10017d7073d,Quốc Lộ 13 - Đinh Thị Thi 3,106.71789765358,10.8451078948305,tth_axis,UP,Thành phố Thủ Đức
56de42f611f398ec0c481288,Võ Văn Kiệt - Cầu Ông Lãnh 1,106.697652339935,10.7637917349984,tth,UP,Quận 1
5d8cd614766c88001718894a,Lê Quang Định - Nơ Trang Long,106.69519007206,10.8081937627675,tth,UP,Quận Bình Thạnh
5a824f975058170011f6eab8,Nguyễn Oanh - Phan Văn Trị (2),106.676913499832,10.8310719980749,tth,UP,Quận Gò Vấp
5a824c3e5058170011f6eaae,Nút giao Bốn Xã 1 (Bình Long),106.621649265289,10.7738836803625,tth,UP,Quận Tân Phú
5deb576d1dc17d7c5515acf9,Nút giao Công Trường Dân Chủ,106.68202,10.777768,tth,UP,Quận 3
587470c2b807da0011e33ce4,Nguyễn Hữu Cảnh - Ngô Tất Tố (Cầu Thủ Thiêm 1),106.715097427368,10.7892027649838,tth,UP,Quận Bình Thạnh
584e734a61cfea0012cf694f,Quốc lộ 1 - Lê Trọng Tấn,106.60130739212,10.8162345391232,tth,UP,Quận Bình Tân
662b7f251afb9c00172dc8bc,Nam Kỳ Khởi Nghĩa - Nguyễn Du,106.697995662689,10.7767873576075,tth,UP,Quận 1
6623ec826f998a001b252686,Nguyễn Oanh - Lê Đức Thọ,106.676613092422,10.8419361769392,tth,UP,Quận Gò Vấp
5deb576d1dc17d7c5515ad23,Ba Tháng Hai - Lý Thường Kiệt,106.659903,10.763649,tth,UP,Quận 11
587efb60b807da0011e33d5d,Phạm Văn Đồng - Lê Quang Định 1,106.689192652702,10.8192748027252,tth,UP,Quận Gò Vấp
589ad89eb3bf7600110283ac,Tô Ký (Tỉnh lộ 15) - Hẻm 146,106.633611917496,10.8486167661312,tth,UP,Quận 12
662b5adc1afb9c00172d925b,Trường Chinh - Phan Huy Ích 1,106.629202365875,10.8235795946401,tth,UP,Quận Tân Bình
5b87c386ca057700116404a6,Đường hầm (Đầu hầm Tp Thủ Đức),106.715902090073,10.7710432140034,tth,UP,Thành phố Thủ Đức
5d8cd542766c880017188948,Võ Văn Ngân - Đặng Văn Bi,106.757980585098,10.8511456568495,tth_axis,UP,Thành phố Thủ Đức
6623e8406f998a001b252465,Phan Đăng Lưu - Hoàng Hoa Thám,106.692352294922,10.8031773894881,tth,UP,Quận Bình Thạnh
5875cef0b807da0011e33d14,Trường Chinh - Phạm Văn Bạch 2,106.632796525955,10.8134629721378,tth,UP,Quận Tân Phú
5a823d555058170011f6eaa2,Lý Tự Trọng - Hai Bà Trưng 1,106.702115535736,10.7791113331904,tth,UP,Quận 1
595da2853dcfc400106f2883,Quốc lộ 1 - Đường 15 (1),106.698827147484,10.8601019727034,tth,UP,Quận 12
587c8183b807da0011e33d3f,Hoàng Văn Thụ - Trần Quốc Hoàn,106.662268638611,10.8013067666529,tth,UP,Quận Tân Bình
5deb576d1dc17d7c5515ad06,Đinh Tiên Hoàng - Nguyễn Đình Chiểu,106.699558,10.788566,tth,UP,Quận 1
662b54711afb9c00172d8d4f,90 Nguyễn Thái Sơn,106.680099964142,10.8160870038835,tth,UP,Quận Gò Vấp
5a8279865058170011f6eaef,Nguyễn Văn Linh - Phạm Hùng 2,106.677889823914,10.7275738904052,tth,UP,Huyện Bình Chánh
662b4faa1afb9c00172d875e,Tháp Mười - Phạm Đình Hổ,106.649479866028,10.7497256871815,tth,UP,Quận 6
662a87641afb9c00172d24b0,Võ Trần Chí - Trần Văn Giàu 2,106.580879688263,10.7492250102216,tth,UP,Quận Bình Tân
56de42f611f398ec0c4812a1,Nút giao Mỹ Thủy 1,106.7747069,10.769926,tth,UP,Thành phố Thủ Đức
63ae7669bfd3d90017e8f0d9,Khánh Hội - Cầu Kênh Tẻ,106.702179908752,10.7528720275909,tth,UP,Quận 4
63b65e6abfd3d90017eaa361,Nguyễn Thị Định - Thân Văn Nhiếp,106.754236221313,10.7903304548658,tth,UP,Thành phố Thủ Đức
662a8fd41afb9c00172d2bac,Nguyễn Lương Bằng - Phạm Hữu Lầu,106.732370853424,10.7045402040992,tth,UP,Quận 7
585b2b1ec3f96200127dc505,Nguyễn Văn Linh - Huỳnh Tấn Phát 1,106.728594303131,10.7528825680397,tth,UP,Quận 7
5a825b7d5058170011f6ead4,Nguyễn Văn Linh - Nguyễn Hữu Thọ (3),106.700441837311,10.7282010989927,tth,UP,Quận 7
5a6069238576340017d0661c,Bạch Đằng - Lê Quang Định,106.698435544968,10.8026188385378,tth,UP,Quận Bình Thạnh
662b857b1afb9c00172dd106,Điện Biên Phủ - Nguyễn Bỉnh Khiêm,106.699739098549,10.7920852162229,tth,UP,Quận 1
56de42f611f398ec0c481298,Võ Văn Kiệt - An Dương Vương 1,106.61993265152,10.7263616348268,tth,UP,Quận Bình Tân
63ae75f9bfd3d90017e8f097,Cao Thắng – Võ Văn Tần 2,106.683275699615,10.769072262419,tth,UP,Quận 3
63ae7829bfd3d90017e8f1ac,Nguyễn Tất Thành - Cầu Tân Thuận 1,106.719351410866,10.7564346782916,tth,UP,Quận 4
65e0556b6b18080018db665e,Nguyễn Thái Học - Phạm Ngũ Lão,106.694637537003,10.7689774034613,tth,UP,Quận 1
662b81eb1afb9c00172dcc85,Nguyễn Thị Minh Khai - Nguyễn Bỉnh Khiêm 2,106.703939437866,10.7882331590867,tth,UP,Quận 1
595dd9ac3dcfc400106f28b4,Quốc lộ 1 - BQB Trước UBND Q12 (hướng đi An Sương),106.653299331665,10.8619827649163,tth,UP,Quận 12
63b54d27bfd3d90017ea7ae5,Xa lộ Hà Nội - Đường D1,106.787774562836,10.8581948267685,tth,UP,Thành phố Thủ Đức
662a8cc51afb9c00172d2938,Huỳnh Tấn Phát - Phú Thuận,106.732006072998,10.7307995207108,tth,UP,Quận 7
587654d3b807da0011e33d36,Võ Chí Công - Đường số 2,106.767582893372,10.7625480044979,tth,UP,Thành phố Thủ Đức
5990ffdbbec3b90016d2ad2d,Đường hầm (Đầu hầm Tp Thủ Đức),106.713402271271,10.7705847317646,tth,UP,Thành phố Thủ Đức
5a8259035058170011f6eacf,Nguyễn Văn Linh - Nguyễn Hữu Thọ (1),106.700549125671,10.7291234621994,tth,UP,Quận 7
58744f1fb807da0011e33cbd,Hưng Phú - Chánh Hưng 1,106.668984889984,10.7459679545654,tth,UP,Quận 8
63b54cffbfd3d90017ea7ad0,Tỉnh lộ 43 - Chân cầu Gò Dưa,106.732392311096,10.8730512767713,tth,UP,Thành phố Thủ Đức
589b4644b3bf7600110283ce,Hà Huy Giáp - Cầu Phú Long 1,106.693124771118,10.8984214318454,tth,UP,Quận 12
5d8cd8e2766c880017188958,Phạm Văn Đồng - Hiệp Bình (hướng đi Sân bay),106.732848286629,10.8374050930507,tth,UP,Thành phố Thủ Đức
63b54938bfd3d90017ea77f6,Nguyễn Duy Trinh - Lã Xuân Oai,106.817160844803,10.8055485847835,tth,UP,Thành phố Thủ Đức
6623ebd76f998a001b25264d,Quốc Lộ 1 - Tô Ký,106.626455783844,10.8522309658882,tth,UP,Quận 12
5a6086e88576340017d0668a,QL1-Cty Pouyuen (1),106.594237089157,10.7485662234825,tth,UP,Quận Bình Tân
586e2995f9fab7001111b0b5,Ung Văn Khiêm - Nguyễn Gia Trí (D2),106.716395616531,10.8075192972885,tth,UP,Quận Bình Thạnh
5d8cd98d766c88001718895a,Phạm Văn Đồng - Tô Ngọc Vân (hướng đi Bình Dương),106.751462817192,10.8533952979021,tth_axis,UP,Thành phố Thủ Đức
6623ee666f998a001b252726,Quang Trung - Phan Huy Ích,106.640124320984,10.8442965283387,tth,UP,Quận Gò Vấp
662b84c11afb9c00172dd0b5,Nguyễn Thị Minh Khai - Phạm Ngọc Thạch,106.696933507919,10.7817830924671,tth,UP,Quận 3
662b51201afb9c00172d889a,Hương Lộ 2 - Mã Lò,106.60413980484,10.7654465210122,tth,UP,Quận Bình Tân
56df8198c062921100c143dd,Nút giao Thủ Đức (Võ Văn Ngân),106.773784160614,10.8492753334826,tth,UP,Thành phố Thủ Đức
5a6066608576340017d06617,Quang Trung - Tân Sơn,106.647216081619,10.839438820585,tth,UP,Quận Gò Vấp
6623ea416f998a001b25260a,Phan Đình Phùng - Nguyễn Trọng Tuyển,106.681151390076,10.7971913554037,tth,UP,Quận Phú Nhuận
662b872d1afb9c00172dd36a,Lê Văn Sỹ - Trần Quang Diệu,106.677889823914,10.7878115903301,tth,UP,Quận 3
6623e4b06f998a001b2522f1,Nguyễn Thị Minh Khai - Nguyễn Thượng Hiền,106.686387062073,10.7703792050172,tth,UP,Quận 1
595dd3a63dcfc400106f28a7,Quốc lộ 1 - Đường Tô Ngọc Vân 1,106.671018004417,10.8617667641718,tth,UP,Quận 12
56f8d743025e9511002786c5,Trường Sơn - Ga Quốc Nội 1,106.664929389954,10.8128675561166,tth,UP,Quận Tân Bình
5a8266105058170011f6eadf,Nguyễn Văn Linh - Quốc lộ 50 (2),106.655761599541,10.7190774577163,tth,UP,Huyện Bình Chánh
662b5afe1afb9c00172d9284,Trường Chinh - Phan Huy Ích 2,106.629813909531,10.8227260178037,tth,UP,Quận Tân Phú
5a82602c5058170011f6ead9,Vĩnh Lộc - Nguyễn Thị Tú 1,106.579173803329,10.8135788937036,tth,UP,Huyện Bình Chánh
585b2980c3f96200127dc502,Huỳnh Tấn Phát - Lưu Trọng Lư 2,106.727993488312,10.755127675229,tth,UP,Quận 7
56de42f611f398ec0c481284,Nguyễn Thị Minh Khai - Nguyễn Thiện Thuật,106.682481765747,10.7664899801327,tth,UP,Quận 3
662b56c51afb9c00172d9071,Bạch Đằng - Đặng Văn Sâm,106.671742200851,10.8146485314923,tth,UP,Quận Tân Bình
63ae7a08bfd3d90017e8f285,Ba Tháng Hai - Lê Hồng Phong 1,106.673265695572,10.7710959130666,tth,UP,Quận 10
662a8b061afb9c00172d27d7,Nguyễn Văn Linh - đường số 1,106.660873889923,10.7232729964823,tth,UP,Huyện Bình Chánh
587ee7d7b807da0011e33d55,Phan Đăng Lưu - Nơ Trang Long,106.694852113724,10.8031879281753,tth,UP,Quận Bình Thạnh
5deb576d1dc17d7c5515ad17,Nguyễn Thị Minh Khai - Hai Bà Trưng,106.698076,10.782987,tth,UP,Quận 1
662b51a41afb9c00172d8926,Lê Văn Quới - Mã Lò,106.601006984711,10.7763973916927,tth,UP,Quận Bình Tân
63ae7893bfd3d90017e8f1e1,Nguyễn Tất Thành - Lê Văn Linh,106.707345843315,10.7643450880206,tth,UP,Quận 4
662a8b9e1afb9c00172d284d,đường dẫn cao tốc Thành Phố Hồ Chí Minh - Trung Lương - Tân Túc 1,106.585782766342,10.6882837981823,tth,UP,Huyện Bình Chánh
5a823ba75058170011f6ea9e,Trần Hưng Đạo - Nguyễn Thái Học 1,106.695769429207,10.7682501504601,tth,UP,Quận 1
662b5a401afb9c00172d91fc,Trường Chinh - Nguyễn Hồng Đào,106.6437292099,10.7980239271457,tth,UP,Quận Tân Bình
56df8544c062921100c143e6,Trường Sơn - Ga Quốc Tế,106.665363907814,10.8136315853096,tth,UP,Quận Tân Bình
595ddb493dcfc400106f28b6,Quốc lộ 1 - Cầu vượt Tân Thới Hiệp 2,106.649731993675,10.8620881310764,tth,UP,Quận 12
66b1c1f2779f740018673f0d,An Dương Vương - Nguyễn Văn Cừ,106.683179140091,10.7611040058688,tth,UP,Quận 5
589b4379b3bf7600110283c9,QL 22 - Giáp Hải,106.481675505638,10.9713380309812,tth,UP,Huyện Củ Chi
5a60604f8576340017d0660b,Nguyễn Thái Sơn - Nguyễn Văn Nghi 2,106.686376333237,10.8243172516762,tth,UP,Quận Gò Vấp
5d8cd9cb766c88001718895c,Phạm Văn Đồng - Tô Ngọc Vân (hướng đi Sân bay),106.751317977905,10.8536007677866,tth_axis,UP,Thành phố Thủ Đức
6623e6b86f998a001b2523b8,Lý Thái Tổ - Hồ Thị Kỷ,106.676344871521,10.7669642785384,tth,UP,Quận 10
5a8256315058170011f6eac9,Đinh Bộ Lĩnh - Nguyễn Xí,106.709566712379,10.8133575888573,tth,UP,Quận Bình Thạnh
5ad064b498d8fc001102e26f,Lã Xuân Oai - Cầu Tăng Long (2),106.805992126465,10.827699912827,tth,UP,Thành phố Thủ Đức
58af8d68bd82540010390c2e,Nam Kỳ Khởi Nghĩa - Điện Biên Phủ 2,106.690700054169,10.7833376554873,tth,UP,Quận 3
65e0552f6b18080018db6647,Lê Lai - Phan Chu Trinh,106.697888374329,10.7717072215258,tth,UP,Quận 1
66b1c22f779f740018673f6e,Vòng xoay Phú Lâm (2),106.633923053741,10.7536309389593,tth,UP,Quận 6
662a8e121afb9c00172d2a3f,Huỳnh Tấn Phát - cầu Tân Thuận 1,106.723868250847,10.7554228054478,tth,UP,Quận 7
662b5be91afb9c00172d939b,Lê Trọng Tấn - Tây Thạnh,106.618773937225,10.8082464553192,tth,UP,Quận Tân Phú
5b728aafca0577001163ff7e,Hồng Bàng - Châu Văn Liêm,106.658910512924,10.7548430851016,tth,UP,Quận 5
63ae7966bfd3d90017e8f240,Cách Mạng Tháng Tám - Tô Hiến Thành,106.672096252441,10.7828791919741,tth,UP,Quận 10
662b4efc1afb9c00172d86bc,Trần Hưng Đạo - Trần Phú,106.667847633362,10.7525663544172,tth,UP,Quận 5
5a607fa38576340017d06671,QL1-KCN Vĩnh Lộc (2) - Hướng An Lạc,106.603088378906,10.8253815821995,tth,UP,Quận Bình Tân
662b87551afb9c00172dd43a,Trần Quốc Thảo - Kỳ Đồng,106.683104038239,10.7848974801384,tth,UP,Quận 3
5deb576d1dc17d7c5515ad21,Nút giao Ngã sáu Nguyễn Tri Phương,106.668851,10.759539,tth,UP,Quận 5
56de42f611f398ec0c481289,Võ Văn Kiệt - Cầu Ông Lãnh 2,106.698285341263,10.7639024056841,tth,UP,Quận 1
58ad69c4bd82540010390be7,Nút giao Phú Nhuận 2 (Phan Đăng Lưu),106.680368185043,10.7993096663153,tth,UP,Quận Phú Nhuận
6623f5876f998a001b25291a,Võ Nguyên Giáp - quay đầu An Phú (1),106.745932102203,10.8021340576256,tth,UP,Thành phố Thủ Đức
6623e2e16f998a001b252233,Hai Bà Trưng - Trần Quốc Toản,106.689380407333,10.7899088890498,tth,UP,Quận 1
63b54898bfd3d90017ea77ae,Nguyễn Duy Trinh - Bưng Ông Thoàn,106.796894073486,10.7912052020479,tth,UP,Thành phố Thủ Đức
63b549b8bfd3d90017ea782c,Đỗ Xuân Hợp - Tây Hòa,106.769192218781,10.8244331690453,tth,UP,Thành phố Thủ Đức
662b5b271afb9c00172d9296,Trường Chinh - Tân Hải,106.640210151672,10.7999419950356,tth,UP,Quận Tân Bình
662a87df1afb9c00172d2522,Trần Văn Giàu - Nguyễn Cửu Phú,106.585021018982,10.7478547321893,tth,UP,Quận Bình Tân
5a823bd55058170011f6eaa0,Trần Hưng Đạo - Nguyễn Thái Học 2,106.695860624313,10.7675334356397,tth,UP,Quận 1
5a6085688576340017d06684,QL1-Tỉnh lộ 10 (3),106.591758728027,10.756524271036,tth,UP,Quận Bình Tân
595dd7693dcfc400106f28b0,Quốc lộ 1 - Đường Lê Thị Riêng 1,106.65426492691,10.8619248135124,tth,UP,Quận 12
59ca329d02eb490011a0a410,QL1 - Nút giao An Lạc 1,106.601028442383,10.7240003578389,tth,UP,Quận Bình Tân
6623e88c6f998a001b25248b,Hoàng Minh Giám - Đăng Văn Sâm,106.676033735275,10.8111972234488,tth,UP,Quận Phú Nhuận
63b54996bfd3d90017ea781a,Đỗ Xuân Hợp - Dương Đình Hội,106.774277687073,10.8167087590452,tth,UP,Thành phố Thủ Đức
56de42f611f398ec0c481283,Mai Chí Thọ - Trần Não 1,106.72761797905,10.775796632403,tth,UP,Thành phố Thủ Đức
662b57ec1afb9c00172d90e3,Cộng Hòa - Hoàng Hoa Thám,106.64838552475,10.8018284344744,tth,UP,Quận Tân Bình
58af9670bd82540010390c34,Phạm Văn Đồng - Phan Văn Trị 1,106.693714857101,10.8212296179772,tth,UP,Quận Gò Vấp
662b50571afb9c00172d87df,Quốc Lộ 50 - Bùi Minh Trực,106.656239032745,10.7375142028136,tth,UP,Quận 8
56df8274c062921100c143df,Võ Nguyên Giáp - Tây Hòa 1,106.761032938957,10.8264933293527,tth,UP,Thành phố Thủ Đức
662b52131afb9c00172d8a23,Tỉnh lộ 10 - Mã Lò,106.606982946396,10.7581738268099,tth,UP,Quận Bình Tân
5a6061fd8576340017d06613,Quang Trung - Trưng Nữ Vương,106.596522331238,10.8885285926454,tth,UP,Huyện Hóc Môn
6623f0246f998a001b252797,Âu Cơ - Lũy Bán Bích,106.638236045837,10.7957475229889,tth,UP,Quận Tân Phú
6623f3436f998a001b252863,Phạm Văn Đồng - Kha Vạn Cân 1,106.761660575867,10.8664976715355,tth,UP,Thành phố Thủ Đức
66b1c311779f740018674083,Vòng xoay Phú Lâm (1),106.634910106659,10.7543371464344,tth,UP,Quận 6
662a896e1afb9c00172d2674,Võ Trần Chí - Trần Đại Nghĩa,106.577425003052,10.7302724592873,tth,UP,Huyện Bình Chánh
59ca30fd02eb490011a0a406,QL1 - Tỉnh lộ 10 (1),106.591324210167,10.7564662992633,tth,UP,Quận Bình Tân
662a8cfe1afb9c00172d296e,Huỳnh Tấn Phát - Trần Trọng Cung,106.729581356049,10.7433433113335,tth,UP,Quận 7
589b39d9b3bf7600110283c1,QL 22 - Nguyễn Ảnh Thủ 2,106.607159972191,10.8554657956616,tth,UP,Huyện Hóc Môn
5d8cd326766c88001718893e,Nút giao Cây Gõ 3 (dạ cầu),106.643235683441,10.75418958083,tth,UP,Quận 6
587461c1b807da0011e33cc8,Quốc lộ 1 - Ngã tư Linh Xuân,106.765501499176,10.8735570152435,tth,UP,Thành phố Thủ Đức
63ae76afbfd3d90017e8f106,Khánh Hội - Đường số 41,106.699776649475,10.7579524811918,tth,UP,Quận 4
63b661a3bfd3d90017eaa520,Nguyễn Tất Thành - Cảng SG (Q4-Q7),106.713321805,10.7596125693667,tth,UP,Quận 4
583f926761cfea0012cf68f1,Nguyễn Thị Định - Cổng A Cảng Cát Lái,106.786578297615,10.7599709364081,tth,UP,Thành phố Thủ Đức
56df81d8c062921100c143de,Nút giao Thủ Đức (trên cầu),106.774009466171,10.8491804998734,tth,UP,Thành phố Thủ Đức
63ae73cebfd3d90017e8f00d,Nguyễn Thị Minh Khai - Cống Quỳnh,106.684364676476,10.7684240589462,tth,UP,Quận 3
662a8a661afb9c00172d2762,Nguyễn Văn Linh - Quản Trọng Linh,106.610469818115,10.6939873445986,tth,UP,Huyện Bình Chánh
6623e7526f998a001b252407,Thành Thái - cư xá Đồng Tiến,106.666313409805,10.7694200783416,tth,UP,Quận 10
5a6084898576340017d06680,QL1 - Tân Tạo Chợ Đệm 3,106.590535640717,10.7642238774455,tth,UP,Quận Bình Tân
56de42f611f398ec0c48129b,Võ Văn Kiệt - Hồ Học Lãm 2,106.611467599869,10.721839351587,tth,UP,Quận Bình Tân
586e2492f9fab7001111b0ab,Nguyễn Văn Trỗi - Nguyễn Đình Chính,106.675336360931,10.7955947082032,tth,UP,Quận Phú Nhuận
662b571d1afb9c00172d9083,Cách Mạng Tháng Tám - Phạm Văn Hai (2),106.660181879997,10.7892923479795,tth,UP,Quận Tân Bình
587479b1b807da0011e33cf9,Trường Chinh - Tây Thạnh 2,106.628301143646,10.8189533898328,tth,UP,Quận Tân Phú
62da3e620637a10017d70720,Quốc Lộ 13 - Đinh Thị Thi 2,106.718176603317,10.8456979781692,tth_axis,UP,Thành phố Thủ Đức
5b0b7aba0e517b00119fd800,Nguyễn Văn Cừ - Trần Hưng Đạo 1,106.685367822647,10.7563714363383,tth,UP,Quận 1
63b54909bfd3d90017ea77e4,Nguyễn Duy Trinh - Võ Chí Công 2,106.792902946472,10.7909838807122,tth,UP,Thành phố Thủ Đức
662a8ddd1afb9c00172d2a0f,Nguyễn Văn Linh - cầu Tân Thuận 2,106.725064516068,10.752102573838,tth,UP,Quận 7
5d9de43b766c880017188cb6,Cao tốc LTDG - Đỗ Xuân Hợp 1,106.778896450996,10.7965537514336,tth,UP,Thành phố Thủ Đức
5d8cd3b7766c880017188942,Lê Hồng Phong - Nguyễn Trãi,106.678184866905,10.7573411448313,tth_axis,UP,Quận 5
56de42f611f398ec0c48129a,Võ Văn Kiệt - Hồ Học Lãm 1,106.610904335976,10.722239929521,tth,UP,Quận Bình Tân
662b57711afb9c00172d90a7,Cộng Hòa - Đường A4,106.649898290634,10.8017125083701,tth,UP,Quận Tân Bình
63b54968bfd3d90017ea7808,Nguyễn Duy Trinh - Đỗ Xuân Hợp,106.781616210938,10.7904358462274,tth,UP,Thành phố Thủ Đức
58df5016dc195800111e04bd,Yên Thế - Hồng Hà,106.668566465378,10.8133259738659,tth,UP,Quận Tân Bình
5d8cdac3766c880017188962,Trường Chinh - Đồng Đen,106.645912528038,10.7970385413523,tth_axis,UP,Quận Tân Bình
587ef5dfb807da0011e33d59,Nguyễn Văn Trỗi - Huỳnh Văn Bánh,106.679853200912,10.7928914544929,tth,UP,Quận Phú Nhuận
595dc2f03dcfc400106f2896,Quốc lộ 1 - Rạch Láng Le 2,106.686226129532,10.8610924193788,tth,UP,Quận 12
662b85f51afb9c00172dd1c2,Nguyễn Thị Nghĩa - Lê Lai,106.694197654724,10.7698416728609,tth,UP,Quận 1
5d8cdbdc766c88001718896a,Hoàng Văn Thụ - Cộng Hòa,106.660782694817,10.8006744408059,tth,UP,Quận Tân Bình
63b54d5abfd3d90017ea7afe,Đường số 1 - Cảng Phước Long,106.755888462067,10.8266672041268,tth,UP,Thành phố Thủ Đức
5deb576d1dc17d7c5515ad13,Pasteur - Lê Thánh Tôn,106.700359,10.775708,tth,UP,Quận 1
662b862a1afb9c00172dd1ff,Hàm Nghi - Phó Đức Chính,106.699524521828,10.7711749616441,tth,UP,Quận 1
5deb576d1dc17d7c5515acf2,Điện Biên Phủ - Cách Mạng Tháng Tám,106.683694124222,10.7765712954739,tth,UP,Quận 3
5a824e465058170011f6eab4,Quang Trung - Lê Văn Thọ (2),106.658325791359,10.8366990807787,tth,UP,Quận Gò Vấp
662b57471afb9c00172d9095,Cộng Hòa - Ấp Bắc,106.641572713852,10.8023975256098,tth,UP,Quận Tân Bình
56de42f611f398ec0c481291,Võ Văn Kiệt - Nguyễn Tri Phương 1,106.668738126755,10.7503370389747,tth,UP,Quận 5
584e71cb61cfea0012cf694b,Quốc lộ 1 - KCN Vĩnh Lộc 3,106.603265404701,10.8248968380735,tth,UP,Quận Bình Tân
63b54c93bfd3d90017ea7ab8,Lê Văn Chí - Linh Trung,106.777850389481,10.8589007882855,tth,UP,Thành phố Thủ Đức
595f874d3dcfc400106f28ec,Quốc lộ 1 - Nguyễn Văn Quá 2,106.639571785927,10.8566669938921,tth,UP,Quận 12
63b3c9bfbfd3d90017e9b039,Kha Vạn Cân - Đường Số 2,106.746854782104,10.8418834903115,tth,UP,Thành phố Thủ Đức
5deb576d1dc17d7c5515acf4,Nút giao Ngã bảy Lý Thái Tổ,106.674156,10.767465,tth,UP,Quận 10
58af99abbd82540010390c39,Nguyễn Hữu Cảnh - Nguyễn Bỉnh Khiêm,106.707914471626,10.7846234574745,tth,UP,Quận 1
6623ecc16f998a001b25269e,Nguyễn Oanh - Nguyễn Văn Lượng,106.675518751144,10.838553676621,tth,UP,Quận Gò Vấp
6623e3ea6f998a001b2522ae,Nguyễn Đình Chiểu - Cao Thắng,106.682138442993,10.7700419300508,tth,UP,Quận 3
662b7d0c1afb9c00172dc6a6,Cống Quỳnh - Bùi Viện,106.690131425858,10.7652778808151,tth,UP,Quận 1
662b54bb1afb9c00172d8dbb,Phạm Văn Chiêu - Đường số 59,106.652623414993,10.8502078623705,tth,UP,Quận Gò Vấp
662b58bd1afb9c00172d9119,Lê Văn Sỹ - Đặng Văn Ngữ,106.66899561882,10.7937556552044,tth,UP,Quận Phú Nhuận
595f86c43dcfc400106f28ea,Quốc lộ 1 - Nguyễn Văn Quá 1,106.639485955238,10.8566248466676,tth,UP,Quận 12
59ca321b02eb490011a0a40d,QL1 - Cầu An Lập,106.601784825325,10.7286174804458,tth,UP,Quận Bình Tân
5a82439f5058170011f6eaa9,Nguyễn Biểu - Cầu Chữ Y,106.68364584446,10.75113811876,tth,UP,Quận 8
6623e5d66f998a001b25235a,Cách Mạng Tháng Tám - Đỗ Thị Lời,106.670325994492,10.783880433226,tth,UP,Quận 3
58d7c20ac1e33c00112b321c,Phạm Văn Đồng - Phan Văn Trị 2,106.69480919838,10.8207659432755,tth,UP,Quận Bình Thạnh
589d0b74b3bf7600110283d4,Cầu Sài Gòn 4 (Thủ Đức 1),106.730428934097,10.7997417577515,tth,UP,Thành phố Thủ Đức
56df807bc062921100c143da,Trường Chinh - Âu Cơ,106.63648724556,10.8019180137061,tth,UP,Quận Tân Phú
662b82a61afb9c00172dcdfd,Trần Quang Khải - Trần Nhật Duật,106.689380407333,10.7916478442304,tth,UP,Quận 1
586e266ef9fab7001111b0b0,Trường Chinh - Phạm Văn Bạch 1,106.633150577545,10.8140847327392,tth,UP,Quận Tân Bình
63ae7a74bfd3d90017e8f2c7,Tô Hiến Thành – Sư Vạn Hạnh,106.665540933609,10.7778940148849,tth,UP,Quận 10
59d3414302eb490011a0a610,Xa Lộ Hà Nội - Đường 120,106.803814172745,10.8674828287814,tth,UP,Thành phố Thủ Đức
6623e9e96f998a001b2525ce,Phan Đình Phùng - Huynh Văn Bánh,106.681923866272,10.7958634513952,tth,UP,Quận Phú Nhuận
63ae7a9cbfd3d90017e8f303,Điện Biên Phủ – Cao Thắng,106.679091453552,10.7727295794518,tth,UP,Quận 3
5a6085188576340017d06682,QL1-Tỉnh lộ 10 (2),106.592434644699,10.7563292750288,tth,UP,Quận Bình Tân
5a606a0f8576340017d0661e,Nơ Trang Long - Nguyễn Xí,106.704116463661,10.8200809679719,tth,UP,Quận Bình Thạnh
56de42f611f398ec0c481286,Mai Chí Thọ - Nguyễn Cơ Thạch 2,106.722918748856,10.7733830435244,tth,UP,Thành phố Thủ Đức
6623f14b6f998a001b2527f0,Tân Kỳ Tân Quý - Lê Trọng Tấn,106.632571220398,10.8037570167341,tth,UP,Quận Tân Phú
662b4f411afb9c00172d86fc,Hậu Giang - Minh Phụng,106.642361283302,10.7497836602495,tth,UP,Quận 6
6792f9c88c5ed4001b27fb3d,Quốc Lộ 1K - Đường GS1,106.776037216187,10.8880966294513,tth,UP,Tỉnh Bình Dương
662b843d1afb9c00172dd02d,Lê Thánh Tôn - Đồng Khởi,106.701825857162,10.7771984022141,tth,UP,Quận 1
595d9b3b3dcfc400106f287e,Quốc lộ 1 - An Phú Đông 12 (1),106.70542538166,10.8592853785591,tth,UP,Quận 12
58df50ffdc195800111e04c0,Cộng Hòa - Thăng Long,106.660755872726,10.8009484488364,tth,UP,Quận Tân Bình
662b50e51afb9c00172d886a,Bà Hom - An Dương Vương,106.624610424042,10.7559709036596,tth,UP,Quận 6
5deb576d1dc17d7c5515ad1a,Pasteur - Lê Duẩn,106.697417,10.779127,tth,UP,Quận 1
5deb576d1dc17d7c5515ad0b,Nam Kỳ Khởi Nghĩa - Lý Tự Trọng,106.699042,10.775615,tth,UP,Quận 1
5a6087858576340017d0668e,QL1-Trạm Biến Áp 500Kv Phú Lâm,106.598871946335,10.7414565055181,tth,UP,Quận Bình Tân
662b4e581afb9c00172d862f,Lê Hồng Phong - Trần Phú,106.677095890045,10.7604188946108,tth,UP,Quận 5
587464e2b807da0011e33cd9,Cầu vượt nút giao thông Gò Dưa,106.733132600784,10.8699588780888,tth,UP,Thành phố Thủ Đức
63b54c51bfd3d90017ea7aa0,Đường số 1 - Nguyễn Văn Bá,106.760228276253,10.8266882798502,tth,UP,Thành phố Thủ Đức
58ad6214bd82540010390be2,Cộng Hòa - Hoàng Hoa Thám,106.647366285324,10.8013120360293,tth,UP,Quận Tân Bình
5deb576d1dc17d7c5515ad09,Trường Chinh - Hoàng Hoa Thám,106.647017598152,10.7964536316791,tth,UP,Quận Tân Bình
58af8a0bbd82540010390c25,Nam Kỳ Khởi Nghĩa - Võ Thị Sáu,106.688543558121,10.784533873088,tth,UP,Quận 3
56de42f611f398ec0c48128e,Võ Văn Kiệt - Cầu Chữ Y 2,106.684101819992,10.7514332528817,tth,UP,Quận 5
587ef859b807da0011e33d5b,Phạm Văn Đồng - Lê Quang Định 2,106.689868569374,10.8200546227367,tth,UP,Quận Gò Vấp
58744e97b807da0011e33cb9,Dương Bá Trạc - Hẻm 219,106.689042448998,10.7469851294422,tth,UP,Quận 8
63b54a48bfd3d90017ea7850,Lã Xuân Oai - Lò Lu,106.808009147644,10.8243804793376,tth,UP,Thành phố Thủ Đức
58c2717ed56e930010a39ac0,Quốc Lộ 50 - Cầu Nhị Thiên Đường 2,106.656062516536,10.7418073259385,tth,UP,Quận 8
58afcd9bbd82540010390c41,Quốc lộ 1 - Nguyễn Hữu Trí 2,106.596699357033,10.6965544326304,tth,UP,Huyện Bình Chánh
63b54a9ebfd3d90017ea7911,Nguyễn Xiển - Nguyễn Văn Tăng,106.828694343567,10.8428107736029,tth,UP,Thành phố Thủ Đức
5bbc7163ca0577001164127f,Lê Văn Lương - Cầu Long Kiểng (HCM),106.702550053597,10.6895647333739,tth,UP,Huyện Nhà Bè
6623f3d66f998a001b252890,Quốc Lộ 1K - đường số 8,106.769835948944,10.8822808688795,tth,UP,Thành phố Thủ Đức
5b6005b6fd4edb0019c7db25,Trần Hưng Đạo - Nguyễn Biểu,106.683527827263,10.7561079280569,tth,UP,Quận 5
662a902a1afb9c00172d2bed,Quốc Lộ 1 - Hưng Nhơn,106.59907579422,10.7114030554397,tth,UP,Huyện Bình Chánh
662b85481afb9c00172dd0f1,Võ Văn Kiệt - Pasteur,106.703091859818,10.7687191761474,tth,UP,Quận 1
6623ef2b6f998a001b252753,Phan Văn Hớn - Trần Văn Mười,106.587703227997,10.8498285289366,tth,UP,Huyện Hóc Môn
66b1c4e7779f7400186741e4,Hoàng Văn Thụ - Phạm Văn Hai,106.665455102921,10.8004004325254,tth,UP,Quận Tân Bình
56de42f611f398ec0c48129c,Võ Văn Kiệt - Quốc Lộ 1,106.600942611694,10.7170534584198,tth,UP,Huyện Bình Chánh
587c8661b807da0011e33d43,Lê Văn Sỹ - Hoàng Văn Thụ,106.660519838333,10.7999683420367,tth,UP,Quận Tân Bình
5b632a79fd4edb0019c7dc0f,Nguyễn Tri Phương - Trần Hưng Đạo,106.669510602951,10.7524240581789,tth,UP,Quận 5
662a87a41afb9c00172d24e9,Trần Văn Giàu - Tỉnh Lộ 10,106.569678783417,10.7617258747396,tth,UP,Huyện Bình Chánh
595dd4133dcfc400106f28a9,Quốc lộ 1 - Đường Tô Ngọc Vân 2,106.671023368835,10.8619616916798,tth,UP,Quận 12
5ad0644698d8fc001102e26b,Lã Xuân Oai - Cầu Tăng Long (1),106.806828975677,10.82640375746,tth,UP,Thành phố Thủ Đức
662b5b8c1afb9c00172d92ca,Bình Long - Lê Thúc Hoạch,106.617207527161,10.7884439432433,tth,UP,Quận Bình Tân
5d8cd7bb766c880017188952,Phạm Văn Đồng - Đường 20 (hướng đi Thủ Đức),106.722747087479,10.8289275670072,tth_axis,UP,Thành phố Thủ Đức
58af9a07bd82540010390c3b,Tôn Đức Thắng - Lê Duẩn,106.703263521194,10.7852927046947,tth,UP,Quận 1
63ae75debfd3d90017e8f082,Cao Thắng – Võ Văn Tần 1,106.683892607689,10.7685031082248,tth,UP,Quận 3
6623eb466f998a001b252632,Hà Huy Giáp - An Lộc,106.679220199585,10.8536955999934,tth,UP,Quận 12
5a824dc05058170011f6eab2,Quang Trung - Lê Văn Thọ (1),106.658180952072,10.8366042431825,tth,UP,Quận Gò Vấp
5d8cd49f766c880017188944,Nguyễn Tri Phương - Nguyễn Trãi,106.669499874115,10.7547007899372,tth_axis,UP,Quận 5
662b836d1afb9c00172dcfa0,Lê Duẩn - Nguyễn Bỉnh Khiêm,106.704819202423,10.7873373247725,tth,UP,Quận 1
5a606c078576340017d06624,Quốc lộ 13 - Hiệp Bình,106.718916893005,10.8495545656016,tth,UP,Thành phố Thủ Đức
5deb576d1dc17d7c5515acf3,Ba Tháng Hai - Lý Thái Tổ,106.668459,10.768198,tth,UP,Quận 10
5a8254b05058170011f6eac3,Xô Viết Nghệ Tĩnh - Nguyễn Xí 1,106.712254285812,10.809674419948,tth,UP,Quận Bình Thạnh
662b50c11afb9c00172d8843,An Dương Vương - Đường số 7,106.624084711075,10.7517441974476,tth,UP,Quận Bình Tân
63ae77bfbfd3d90017e8f18f,Nguyễn Tất Thành - Cầu Tân Thuận 2,106.717768907547,10.757040746338,tth,UP,Quận 4
6623f51a6f998a001b252900,Quốc Lộ 13 - Nguyễn Thị Nhung,106.716363430023,10.8403450366927,tth,UP,Thành phố Thủ Đức
5deb576d1dc17d7c5515ad0a,Hoàng Văn Thụ - Xuân Diệu,106.655729,10.795418,tth,UP,Quận Tân Bình
58744e3eb807da0011e33cb7,Dương Bá Trạc - Hẻm 288,106.688919067383,10.7444131987789,tth,UP,Quận 8
58744dd9b807da0011e33cb5,Quốc lộ 50 - Tạ Quang Bửu,106.656190752983,10.7341621509602,tth,UP,Quận 8
56de42f611f398ec0c481290,Võ Văn Kiệt - An Bình,106.673292517662,10.7493356862526,tth,UP,Quận 5
58af8b69bd82540010390c28,Nam Kỳ Khởi Nghĩa - Điện Biên Phủ 1,106.69091463089,10.7832744191822,tth,UP,Quận 3
6623e3a26f998a001b252291,Lý Chính Thắng - Trần Quốc Thảo,106.684466600418,10.7843863222755,tth,UP,Quận 3
595dcab53dcfc400106f289d,Quốc lộ 1 - BQB Trước bến xe Ngã 4 Ga (hướng đi Bình Phước),106.678490638733,10.861629788009,tth,UP,Quận 12
58ad7291bd82540010390bf9,Phan Đăng Lưu - Nguyễn Văn Đậu,106.687197089195,10.8038413260585,tth,UP,Quận Phú Nhuận
662a89211afb9c00172d2636,Quốc Lộ 1 - Dương Đình Cúc,106.597981452942,10.705952846726,tth,UP,Huyện Bình Chánh
5deb576d1dc17d7c5515ad05,Điện Biên Phủ - Đinh Tiên Hoàng,106.697491,10.790705,tth,UP,Quận 1
595dd4f43dcfc400106f28ab,Quốc lộ 1 - Cầu Bến Cát 1,106.663309335709,10.8616403246391,tth,UP,Quận 12
6792ef4f8c5ed4001b27f2c0,Quốc Lộ 1 - Ba Làng,106.5558385849,10.6562217600296,tth,UP,Huyện Bình Chánh
662b84771afb9c00172dd076,Nguyễn Du - Công xã Paris,106.700012683868,10.7790322866967,tth,UP,Quận 1
6623f0b46f998a001b2527c3,Hòa Bình - Lũy Bán Bích,106.631401777267,10.7704213643614,tth,UP,Quận Tân Phú
665861d864f11e00173c73a9,Huỳnh Tấn Phát - Cầu Tân Thuận 1,106.723374724388,10.7554702370632,tth,UP,Quận 7
5a607f078576340017d0666f,QL1-Phan Văn Hớn (H.Hoc Mon),106.606779098511,10.8344440453534,tth,UP,Huyện Hóc Môn
5a824ee15058170011f6eab6,Nguyễn Oanh - Phan Văn Trị (1),106.67790055275,10.8306083386046,tth,UP,Quận Gò Vấp
6623ed396f998a001b2526b8,Nguyễn Thái Sơn - Phạm Ngũ Lão,106.683468818665,10.820344420197,tth,UP,Quận Gò Vấp
5b632b60fd4edb0019c7dc12,Hồng Bàng - Ngô Quyền 1,106.666420698166,10.7557179353779,tth,UP,Quận 5
587c8d97b807da0011e33d49,Hoàng Văn Thụ - Nguyễn Văn Trỗi 2,106.669188737869,10.8001000770077,tth,UP,Quận Phú Nhuận
59414c883dcfc400106f260b,Cộng Hòa - Bình Giã,106.645107865334,10.8018653200436,tth,UP,Quận Tân Bình
56df82d4c062921100c143e0,Võ Nguyên Giáp - Tây Hòa 2,106.760866641998,10.8264933293527,tth_axis,UP,Thành phố Thủ Đức
6792f1008c5ed4001b27f41f,Quốc Lộ 22 - Võ Văn Điều,106.452713012695,10.9882952554727,tth,UP,Huyện Củ Chi
58affc6017139d0010f35cc8,Phạm Văn Đồng - Quốc Lộ 13 (1),106.714013814926,10.8262720340397,tth,UP,Thành phố Thủ Đức
587463bab807da0011e33cd3,Quốc lộ 1 - Lê Thị Hoa,106.748399734497,10.8747792130109,tth,UP,Thành phố Thủ Đức
5deb576d1dc17d7c5515ad1c,Hoàng Diệu - Nguyễn Tất Thành,106.707260012627,10.7652936908376,tth,UP,Quận 4
56de42f611f398ec0c481287,Võ Văn Kiệt - Ký Con,106.700146794319,10.7654781410386,tth,UP,Quận 1
662b5c981afb9c00172d94c0,Tân Kỳ Tân Quý - Tân Quý,106.619310379028,10.7994361321658,tth,UP,Quận Tân Phú
662a861e1afb9c00172d23ad,Nguyễn Hữu Thọ - Phạm Hữu Lầu,106.718187332153,10.6954843759884,tth,UP,Huyện Nhà Bè
662b5a9c1afb9c00172d9240,Trường Chinh - Nguyễn Thái Bình,106.650145053864,10.7946620093783,tth,UP,Quận Tân Bình
662a88a01afb9c00172d25d1,Trần Văn Giàu - Đường Thanh Niên,106.517043113709,10.788032914001,tth,UP,Huyện Bình Chánh
662b4e201afb9c00172d85f9,Hồng Bàng - Tạ Uyên,106.653825044632,10.7537258027461,tth,UP,Quận 5
5d8cdb4b766c880017188966,Hoàng Văn Thụ - Út Tịch,106.658374071121,10.7980555437486,tth,UP,Quận Tân Bình
63b66051bfd3d90017eaa4a3,Nơ Trang Long - Phan Văn Trị,106.695485115051,10.8112288386645,tth,UP,Quận Bình Thạnh
62da3e390637a10017d706ff,Quốc Lộ 13 - Đinh Thị Thi 1,106.718230247498,10.8444440496827,tth_axis,UP,Thành phố Thủ Đức
56f11ac33ac17b11001c504c,Nguyễn Văn Trỗi - Hoàng Văn Thụ 1,106.668410897255,10.7996311002478,tth,UP,Quận Tân Bình
66b1c4a2779f74001867418c,Lê Văn Sỹ - Phạm Văn Hai,106.664553880692,10.7971175831128,tth,UP,Quận Tân Bình
631813ebc9eae60017a196b0,Cầu Sài Gòn 8 (Thủ Đức),106.731228232384,10.7995520591487,tth,UP,Thành phố Thủ Đức
587475abb807da0011e33cea,Trường Sơn - Cửu Long,106.664789915085,10.8091738427151,tth,UP,Quận Tân Bình
5deb576d1dc17d7c5515ad0e,Cách Mạng Tháng Tám - Nguyễn Đình Chiểu,106.686639,10.774969,tth,UP,Quận 3
5deb576d1dc17d7c5515ad11,Nguyễn Đình Chiểu - Trương Định,106.689658,10.777922,tth,UP,Quận 3
587478d8b807da0011e33cf3,Nút giao Bảy Hiền 1 (Cách Mạng Tháng Tám),106.653594374657,10.7928387592472,tth,UP,Quận Tân Bình
5deb576d1dc17d7c5515acf8,Ba Tháng Hai - Cao Thắng,106.67782,10.773823,tth,UP,Quận 10
591c6833a6bfb500119400a3,Đặng Thúc Vịnh - Trịnh Thị Miếng,106.613377332687,10.890809558636,tth,UP,Huyện Hóc Môn
63ae7938bfd3d90017e8f226,Quốc Lộ 1- Công ty Pouyen 3 (Cổng),106.595476269722,10.7470852656437,tth,UP,Quận Bình Tân
63b664edbfd3d90017eaaa24,CT Trung Lương - Võ Trần Chí 2,106.566883921623,10.6846307310993,tth,UP,Huyện Bình Chánh
56df83d8c062921100c143e3,Nút giao Nguyễn Thái Sơn 1 (Hồng Hà),106.678351163864,10.8140847327392,tth,UP,Quận Gò Vấp
6623e5776f998a001b252337,Trần Quang Diệu - Trường Sa,106.678436994553,10.7845127944049,tth,UP,Quận 3
59ca308302eb490011a0a403,QL1 - Tân Tạo Chợ Đệm 1,106.590755581856,10.7672014274613,tth,UP,Quận Bình Tân
5deb576d1dc17d7c5515acfd,Lý Chính Thắng - Nguyễn Thông,106.682181358337,10.7793063144528,tth,UP,Quận 3
56df8159c062921100c143dc,Nút giao Thủ Đức (Lê Văn Việt),106.774283051491,10.8490751291612,tth,UP,Thành phố Thủ Đức
587ef2e4b807da0011e33d57,Nguyễn Văn Trỗi - Nguyễn Trọng Tuyển,106.672310829163,10.7976866831738,tth,UP,Quận Phú Nhuận
589b3f7db3bf7600110283c6,QL 22 - Nguyễn Văn Bứa 2,106.586925387383,10.8841088420888,tth,UP,Huyện Hóc Môn
6623e6706f998a001b25239b,Hùng Vương - Trần Nhân Tôn,106.675046682358,10.7612726484012,tth,UP,Quận 10
662b86551afb9c00172dd227,Trần Hưng Đạo - Calmette,106.697469949722,10.7702052976598,tth,UP,Quận 1
662a88521afb9c00172d2592,Kinh Dương Vương - Hồ Học Lãm,106.607261896133,10.7281852870275,tth,UP,Quận Bình Tân
649da77ea6068200171a6dd4,Tôn Đức Thắng - Công trường Mê Linh,106.70676112175,10.775301268578,tth,UP,Quận 1
63b3c59fbfd3d90017e9ace8,Vĩnh Lộc - Quách Điêu,106.577596664429,10.8125250596398,tth,UP,Huyện Bình Chánh
58b5510817139d0010f35d4e,Phạm Văn Đồng - Quốc Lộ 13 (2),106.71435713768,10.8254711543978,tth,UP,Thành phố Thủ Đức
5a824c905058170011f6eab0,Nút giao Bốn Xã 2 (Hòa Bình),106.62178337574,10.7736939654481,tth,UP,Quận Tân Phú
5deb576d1dc17d7c5515ad16,Nguyễn Thị Minh Khai - Pasteur,106.695957,10.780518,tth,UP,Quận 1
63ae7c73bfd3d90017e8f3ed,Lý Thường Kiệt - Tô Hiến Thành 2,106.658003926277,10.7708113380158,tth,UP,Quận 11
586e1d4ef9fab7001111b0a2,Cộng Hòa - Đường C 18,106.651110649109,10.8016071209638,tth,UP,Quận Tân Bình
63195512c9eae60017a1c279,Nguyễn Trãi - Cống Quỳnh 1,106.688103715542,10.7663399395947,tth,UP,Quận 1
6623df636f998a001b251e92,Hai Bà Trưng - Trần Cao Vân,106.69704079628,10.7839015119534,tth,UP,Quận 3
5d8cdc9d766c880017188970,Lạc Long Quân - Âu Cơ,106.647881269455,10.7747690150491,tth_axis,UP,Quận 11
6792f1b78c5ed4001b27f4a9,Quốc Lộ 13 - Cầu Vĩnh Bình,106.716213226318,10.8682888641092,tth,UP,Thành phố Thủ Đức
5a8254f25058170011f6eac5,Xô Viết Nghệ Tĩnh - Nguyễn Xí 2,106.712415218353,10.8102803807443,tth,UP,Quận Bình Thạnh
63ae7c53bfd3d90017e8f3d8,Lý Thường Kiệt - Tô Hiến Thành 1,106.658336520195,10.7704951431996,tth,UP,Quận 10
5deb576d1dc17d7c5515ad20,Hồng Bàng - Ngô Quyền 2,106.666241,10.755881,tth,UP,Quận 5
5874796db807da0011e33cf7,Trường Chinh - Tây Thạnh 1,106.630790233612,10.8199228965258,tth,UP,Quận Tân Phú
5deb576d1dc17d7c5515acfa,Nút giao Công Trường Dân Chủ,106.681336,10.777664,tth,UP,Quận 10
58746536b807da0011e33cdc,Cầu vượt Bình Phước 1,106.723519563675,10.8659497751896,tth,UP,Thành phố Thủ Đức
662b4f7e1afb9c00172d872e,Hậu Giang - Nguyễn Văn Luông,106.635103225708,10.7480971664479,tth,UP,Quận 6
662b59291afb9c00172d912b,Lê Văn Sỹ - Nguyễn Trọng Tuyển,106.662569046021,10.7987511081718,tth,UP,Quận Tân Bình
5a6060a88576340017d0660d,Nguyễn Thái Sơn - Phan Văn Trị  1,106.689493060112,10.8261245037402,tth,UP,Quận Gò Vấp
63b65f33bfd3d90017eaa405,Nguyễn Hữu Cảnh - Ngô Tất Tố 3 (Nhánh chính cầu Thủ Thiêm 1),106.716953516006,10.7887970063747,tth,UP,Quận Bình Thạnh
5deb576d1dc17d7c5515ad1e,Pasteur - Hàm Nghi,106.702639,10.770674,tth,UP,Quận 1
589b3705b3bf7600110283bd,QL 22 - Nguyễn Ảnh Thủ 1,106.607385277748,10.8551338847726,tth,UP,Quận 12
63ae7759bfd3d90017e8f162,Nguyễn Tất Thành - Cầu Khánh Hội,106.706036925316,10.7675070857977,tth,UP,Quận 4
63ae7709bfd3d90017e8f135,Hoàng Diệu - Đoàn Văn Bơ 1,106.703810691834,10.7632541910898,tth,UP,Quận 4
662b55111afb9c00172d8e2e,Quang Trung - Phạm Văn Chiêu,106.640725135803,10.8446442571047,tth,UP,Quận Gò Vấp
649da419a6068200171a6c90,Nguyễn Chí Thanh - Ngô Quyền,106.665605306625,10.759206770879,tth,UP,Quận 5
58afccadbd82540010390c3f,Quốc lộ 1 - Nguyễn Hữu Trí 1,106.596463322639,10.6966335007055,tth,UP,Huyện Bình Chánh
662b82761afb9c00172dcda3,Trần Quang Khải - Trần Nguyên Đán,106.694144010544,10.7923592320866,tth,UP,Quận 1
5deb576d1dc17d7c5515acf7,Nút giao Ngã sáu Cộng Hòa,106.68172,10.765059,tth,UP,Quận 5
5d8cd767766c880017188950,Phạm Văn Đồng - Nguyễn Xí (hướng đi Sân bay),106.702968478203,10.8230474266509,tth_axis,UP,Quận Bình Thạnh
6792f16e8c5ed4001b27f482,Cao tốc LT-DG - Trạm thu phí Long Phước,106.850624084473,10.7858829057319,tth,UP,Thành phố Thủ Đức
5874656eb807da0011e33cde,Cầu vượt Bình Phước 2,106.724211573601,10.8647433460363,tth,UP,Thành phố Thủ Đức
6623e3566f998a001b25226d,Lê Văn Sỹ - Trường Sa,106.680936813354,10.786135848679,tth,UP,Quận 3
5abbb6d698d8fc001102dfc8,Nguyễn Văn Linh - Nguyễn Lương Bằng (1),106.720451116562,10.7314425344033,tth,UP,Quận 7
56de42f611f398ec0c481296,Võ Văn Kiệt - Cao Văn Lầu,106.650842428207,10.7442498171975,tth,UP,Quận 6
5deb576d1dc17d7c5515ad03,Nam Kỳ Khởi Nghĩa - Nguyễn Đình Chiểu,106.692835092545,10.7814721788992,tth,UP,Quận 3
63ae777cbfd3d90017e8f177,Nguyễn Tất Thành - Đoàn Như Hài,106.706455349922,10.7667745592657,tth,UP,Quận 4
631828cac9eae60017a19f50,Nguyễn Thị Minh Khai - Nguyễn Bỉnh Khiêm 1,106.703531742096,10.7887074232314,tth,UP,Quận 1
63b3c2fbbfd3d90017e9abbf,Cầu Sài Gòn 1 (dạ cầu Bình Thạnh),106.724379211664,10.7980089972696,tth,UP,Quận Bình Thạnh
58d7c2e6c1e33c00112b321e,Trường Chinh - Phan Văn Hớn 1 (Q12-HM),106.625425815582,10.8269833398213,tth,UP,Quận 12
63b54ad1bfd3d90017ea7974,Võ Chí Công - Liên Phường 1,106.792543530464,10.8045368770814,tth,UP,Thành phố Thủ Đức
662b5b481afb9c00172d92a8,Trường Chinh - Trương Công Định,106.641937494278,10.7990461956223,tth,UP,Quận Tân Bình
56de42f611f398ec0c48129e,Đồng Văn Cống - Phan Văn Đáng,106.7572618,10.7785053,tth,UP,Thành phố Thủ Đức
5d9dddb9766c880017188c96,Nút giao Hàng Xanh 2 (ĐH Hồng Bàng),106.706600189209,10.7998787622235,tth,UP,Quận Bình Thạnh
5d8cd372766c880017188940,Nút giao Cây Gõ 2 (Minh Phụng),106.643267869949,10.7550275416962,tth_axis,UP,Quận 11
5ad06a0d98d8fc001102e27b,Vĩnh Lộc - Nguyễn Thị Tú 2,106.579318642616,10.8135578170586,tth,UP,Huyện Bình Chánh
5a60839c8576340017d0667c,QL1 - Hương Lộ 2 (2),106.591436862946,10.769962881176,tth,UP,Quận Bình Tân
63b65f64bfd3d90017eaa41f,Xô Viết Nghệ Tĩnh - Đường D5,106.711615920067,10.8068184838962,tth,UP,Quận Bình Thạnh
58746371b807da0011e33cd1,Quốc lộ 1 - Đường 14,106.775951385498,10.8696796650458,tth,UP,Thành phố Thủ Đức
63bd1e95bfd3d90017ec3cd5,Nguyễn Lương Bằng - Hoàng Quốc Việt,106.731684207916,10.7131108376067,tth,UP,Quận 7
63ae7cd3bfd3d90017e8f408,Lạc Long Quân - Ông Ích Khiêm,106.64261341095,10.7667007795163,tth,UP,Quận 11
5d8cd70e766c88001718894e,Phạm Văn Đồng - Nguyễn Xí (hướng đi Thủ Đức),106.703445911407,10.8228313977916,tth_axis,UP,Quận Bình Thạnh
58b555ac17139d0010f35d59,Tùng Thiện Vương - Cầu Nhị Thiên Đường,106.656072735786,10.7443815765443,tth,UP,Quận 8
595ddc123dcfc400106f28ba,Quốc lộ 1 - Cầu vượt Tân Thới Hiệp 1,106.649812459946,10.8617509592331,tth,UP,Quận 12
587460aab807da0011e33cc2,Quốc lộ 1 - ĐH Nông Lâm 1,106.788429021835,10.8671930769878,tth,UP,Thành phố Thủ Đức
662a8f701afb9c00172d2b5e,Nguyễn Thị Thập - Lê Văn Lương,106.703596115112,10.739928078758,tth,UP,Quận 7
63b55020bfd3d90017ea7cb7,Nút giao Mỹ Thủy (6),106.77515745163,10.7702738066308,tth,UP,Thành phố Thủ Đức
6623eec96f998a001b25273b,Quang Trung - Thống Nhất,106.664371490479,10.8346442594662,tth,UP,Quận Gò Vấp
662b4d781afb9c00172d8571,An Dương Vương - Lê Hồng Phong,106.677567958832,10.7589116443632,tth,UP,Quận 5
5a606a958576340017d06621,Đinh Bộ Lĩnh - Bạch Đằng 3,106.709464788437,10.8028664980496,tth,UP,Quận Bình Thạnh
662a8c381afb9c00172d28b6,Dương Bá Trạc - đường 9A,106.689584255218,10.7388529049553,tth,UP,Huyện Bình Chánh
63b6617ebfd3d90017eaa50b,Nguyễn Tất Thành - Cảng SG (Q7-Q4),106.713917255402,10.7592436616732,tth,UP,Quận 4
56de42f611f398ec0c48129d,Quốc lộ 1 - Trần Đại Nghĩa,106.600669026375,10.7223980522437,tth,UP,Quận Bình Tân
56de42f611f398ec0c481292,Võ Văn Kiệt - Phạm Phú Thứ,106.645520925522,10.7413616378753,tth,UP,Quận 6
5deb576d1dc17d7c5515acff,Hai Bà Trưng - Lý Chính Thắng,106.687554,10.791464,tth,UP,Quận 1
662b58791afb9c00172d9107,255 Hoàng Văn Thụ,106.664301753044,10.8005216285264,tth,UP,Quận Tân Bình
662b811d1afb9c00172dcc1d,Trần Hưng Đạo - Nguyễn Cư Trinh,106.692867279053,10.7650143803183,tth,UP,Quận 1
662a8eb41afb9c00172d2aba,Nguyễn Văn Linh - Nguyễn Thị Thập 2,106.721824407578,10.7379990877391,tth,UP,Quận 7
63b548ecbfd3d90017ea77d2,Nguyễn Duy Trinh - Võ Chí Công 1,106.791990995407,10.7909628024813,tth,UP,Thành phố Thủ Đức
5deb576d1dc17d7c5515acfb,Võ Thị Sáu - Bà Huyện Thanh Quan,106.684262752533,10.7801863634439,tth,UP,Quận 3
6792f03d8c5ed4001b27f378,Quốc Lộ 50 - Cổng chào Long An,106.657032966614,10.6424723207925,tth,UP,Tỉnh Long An
6623e7076f998a001b2523ea,Lý Thái Tổ - Sư Vạn Hạnh,106.671495437622,10.7677758540786,tth,UP,Quận 10
5aab1f852d266a0017e5afd4,Võ Chí Công - Cầu Phú Mỹ,106.754032373428,10.7496677141024,tth,UP,Thành phố Thủ Đức
5d8cda2e766c88001718895e,Phạm Văn Đồng - Kha Vạn Cân (hướng đi Quốc lộ 1),106.74354493618,10.840819218446,tth_axis,UP,Thành phố Thủ Đức
586e25e1f9fab7001111b0ae,Trường Chinh - Tân Kỳ Tân Quý,106.635918617249,10.8037728247342,tth,UP,Quận Tân Bình
63ae76ddbfd3d90017e8f11b,Khánh Hội -  Hoàng Diệu,106.698489189148,10.7596389198989,tth,UP,Quận 4
5deb576d1dc17d7c5515ad14,Lý Tự Trọng - Đồng Khởi,106.701037287712,10.7778940148849,tth,UP,Quận 1
63b66035bfd3d90017eaa48e,Nơ Trang Long - Nguyễn Huy Lượng (Bệnh viện Ung Bướu),106.695023775101,10.8053483512381,tth,UP,Quận Bình Thạnh
585b284ac3f96200127dc500,Huỳnh Tấn Phát - Lưu Trọng Lư 1,106.727795004845,10.7545321437295,tth,UP,Quận 7
5deb576d1dc17d7c5515ad04,Võ Thị Sáu - Pasteur,106.690008044243,10.7860304558102,tth,UP,Quận 3
5a8278f35058170011f6eaed,Nguyễn Văn Linh - Phạm Hùng 1,106.677117347717,10.7284488196731,tth,UP,Huyện Bình Chánh
662b830e1afb9c00172dcf50,Cách Mạng Tháng Tám - Võ Văn Tần,106.688017845154,10.7743421575788,tth,UP,Quận 3
5a6084208576340017d0667e,QL1 - Tân Tạo Chợ Đệm 2,106.590557098389,10.7661000008843,tth,UP,Quận Bình Tân
63b54aedbfd3d90017ea79c3,Võ Chí Công - Liên Phường 2,106.791937351227,10.8049478837466,tth,UP,Thành phố Thủ Đức
586e20a0f9fab7001111b0a7,Nguyễn Kiệm - Hồ Văn Huê,106.6783618927,10.8062968247449,tth,UP,Quận Phú Nhuận
5b0b7bbe0e517b00119fd806,Nguyễn Văn Cừ - Trần Hưng Đạo 2,106.685357093811,10.7563925169909,tth,UP,Quận 1
6623edd26f998a001b2526f7,Vòng xoay Gò Vấp (2),106.679542064667,10.8267936584446,tth,UP,Quận Gò Vấp
5a8255a55058170011f6eac7,BX Miền Đông - Đinh Bộ Lĩnh 1,106.711433529854,10.8168141411482,tth,UP,Quận Bình Thạnh
56de42f611f398ec0c481294,Đường hầm - Đầu Quận 1,106.702040433884,10.7675334356397,tth,UP,Quận 1
587ed91db807da0011e33d4e,Phan Đăng Lưu - Đinh Tiên Hoàng 2,106.697963476181,10.8024818353159,tth,UP,Quận Bình Thạnh
63b54dcbbfd3d90017ea7ba8,Quốc Lộ 1 - Cổng ĐH Quốc gia TPHCM,106.793847084045,10.865338658848,tth,UP,Thành phố Thủ Đức
6623ed9b6f998a001b2526cd,Vòng xoay Gò Vấp (1),106.680099964142,10.8260981590362,tth,UP,Quận Gò Vấp
58b5752e17139d0010f35d5f,Nam Kỳ Khởi Nghĩa -Nguyễn Thị Minh Khai 2,106.695173978806,10.7794696770349,tth_axis,UP,Quận 1
58175c81edeb6c0012a2d5c2,Mai Chí Thọ - Trần Não 2,106.727376580238,10.7757228548636,tth,UP,Thành phố Thủ Đức
631812e6c9eae60017a19567,Cầu Sài Gòn 11 (Bình Thạnh),106.723358631134,10.7980818909152,tth,UP,Quận Bình Thạnh
6623e7b76f998a001b25242d,Đinh Bộ Lĩnh - Bùi Đình Túy,106.709260940552,10.8083518403949,tth,UP,Quận Bình Thạnh
5ad068b198d8fc001102e278,Quốc lộ 50 - Cầu Ông Thìn (1),106.654586791992,10.6524259645754,tth,UP,Huyện Bình Chánh
66f126e8538c780017c9362f,Nguyễn Chí Thanh - Nguyễn Kim,106.662740707397,10.7587008395322,tth,UP,Quận 10
63ae75a3bfd3d90017e8f051,Cống Quỳnh - Phạm Viết Chánh,106.685453653336,10.767891793263,tth,UP,Quận 1
662b7d8a1afb9c00172dc71f,Lê Lai - Phạm Hồng Thái,106.695914268494,10.7712223907807,tth,UP,Quận 1
5abbb77298d8fc001102dfce,Nguyễn Văn Linh - Nguyễn Lương Bằng (2),106.720327734947,10.7315637581429,tth,UP,Quận 7
63bd1f48bfd3d90017ec3d19,Huỳnh Tấn Phát - Nguyễn Thị Thập,106.730353832245,10.7375247437985,tth,UP,Quận 7
58aff2c6bd82540010390c55,Quốc lộ 1 - Đinh Đức Thiện 1,106.569807529449,10.6647884855642,tth,UP,Huyện Bình Chánh
5deb576d1dc17d7c5515ad18,Hai Bà Trưng - Lê Duẩn,106.699614,10.781431,tth,UP,Quận 1
66b1c1bf779f740018673ef2,An Dương Vương - Trần Phú,106.674488782883,10.7577416756903,tth,UP,Quận 5
56de42f611f398ec0c4812a0,Nguyễn Thị Định - Đường A,106.783590316772,10.7627851568961,tth,UP,Thành phố Thủ Đức
6623efc26f998a001b25277f,Tô Ký - Nguyễn Ảnh Thủ,106.615512371063,10.8675723883698,tth,UP,Huyện Hóc Môn
662b50841afb9c00172d880d,Tùng Thiện Vương - Xóm Củi,106.660562753677,10.7466952613032,tth,UP,Quận 8
58abc0cbbd82540010390ba6,Cầu Sài Gòn 3 (Dạ cầu Bình Thạnh),106.724311485887,10.7982289959934,tth,UP,Quận Bình Thạnh
58afea5dbd82540010390c4d,Quốc lộ 1 - Bùi Thanh Khiết 1,106.580477356911,10.6741931544789,tth,UP,Huyện Bình Chánh
5deb576d1dc17d7c5515ad07,Nguyễn Văn Trỗi - Trương Quốc Dung,106.672665,10.797381,tth,UP,Quận Phú Nhuận
5d8cdc1d766c88001718896c,Trường Sơn - Hậu Giang,106.664478778839,10.8076721060064,tth,UP,Quận Tân Bình
5a606c758576340017d06626,BX Miền Đông - Quốc Lộ 13 (1),106.712779998779,10.8142322689639,tth,UP,Quận Bình Thạnh
5a82628e5058170011f6eadb,Nguyễn Văn Linh - Quốc lộ 50 (1),106.655665040016,10.7199365991593,tth,UP,Huyện Bình Chánh
6792f2248c5ed4001b27f4dc,Quốc Lộ 1 - Độc Lập (cổng KCN Sóng Thần),106.751575469971,10.8756221051048,tth,UP,Thành phố Thủ Đức
5d8cd653766c88001718894c,Kha Vạn Cân - Võ Văn Ngân,106.75500869751,10.8509770648006,tth,UP,Thành phố Thủ Đức
662b4de41afb9c00172d85c5,Hải Thượng Lãn Ông - Châu Văn Liêm,106.658996343613,10.7509852813336,tth,UP,Quận 5
58af8eb2bd82540010390c30,Nam Kỳ Khởi Nghĩa -Nguyễn Thị Minh Khai 1,106.695082783699,10.7797542439016,tth,UP,Quận 3
6623ee176f998a001b25270c,Phan Văn Trị - Lê Đức Thọ,106.6819024086,10.829417573494,tth,UP,Quận Gò Vấp
58746314b807da0011e33cce,Quốc lộ 1 - Cầu vượt Linh Xuân,106.765040159225,10.8733304866588,tth,UP,Thành phố Thủ Đức
59d34ce302eb490011a0a616,Đỗ Xuân Hợp - Cầu Cống Đập.,106.7762196064,10.8104489957249,tth,UP,Thành phố Thủ Đức
662a8e641afb9c00172d2a7e,Nguyễn Văn Linh - Nguyễn Thị Thập 1,106.721234321594,10.7379358419233,tth,UP,Quận 7
63ae7c12bfd3d90017e8f3c0,Ba Tháng Hai - Lê Đại Hành 2,106.656598448753,10.7621422099615,tth,UP,Quận 11
5b0b835b0e517b00119fd80d,Tam Bình (Số 81),106.73014998436,10.8530844585776,tth,UP,Thành phố Thủ Đức
662b82da1afb9c00172dce94,Hai Bà Trưng - Nguyễn Hữu Cầu,106.690120697021,10.7893713917772,tth,UP,Quận 3
5d8cd2a3766c88001718893c,Nút giao Cây Gõ 1 (trên cầu),106.642913818359,10.7544425503934,tth_axis,UP,Quận 11
662b4e8e1afb9c00172d865c,Lý Thường Kiệt - Nguyễn Chí Thanh,106.661485433578,10.7584267930315,tth,UP,Quận 11
66b1c190779f740018673ed4,Nguyễn Trãi - Trần Phú,106.67188167572,10.7550749733738,tth,UP,Quận 5
662b7f9f1afb9c00172dca50,Nguyễn Đình Chiểu - Nguyễn Bỉnh Khiêm,106.701471805573,10.7904674636287,tth,UP,Quận 1
58747923b807da0011e33cf5,Nút giao Bảy Hiền 2 (Hoàng Văn Thụ),106.653615832329,10.7931970867358,tth,UP,Quận Tân Bình
63ae7af4bfd3d90017e8f32c,Ba Tháng Hai - Lý Thường Kiệt 2,106.659564971924,10.7636125538021,tth,UP,Quận 11
5875d4f8b807da0011e33d1a,Tạ Quang Bửu - Phạm Hùng 1,106.670937538147,10.7372717600591,tth,UP,Quận 8
595d92013dcfc400106f2877,Quốc Lộ 1A - Cầu Bình Phước,106.715140342712,10.8607025631008,tth,UP,Quận 12
583f976361cfea0012cf68f9,Nguyễn Thị Định - Lê Phụng Hiểu,106.784512996674,10.7619577577189,tth,UP,Thành phố Thủ Đức
662b80721afb9c00172dcb28,Nguyễn Văn Thủ - Trần Doãn Khanh,106.69774889946,10.788633648858,tth,UP,Quận 1
586e1f18f9fab7001111b0a5,Cộng Hòa - Trường Chinh,106.634953022003,10.8070661399436,tth,UP,Quận Tân Bình
63b65f8dbfd3d90017eaa434,Xô Viết Nghệ Tĩnh - Phan Văn Hân (Cầu Thị Nghè),106.707404851913,10.7927439077816,tth,UP,Quận Bình Thạnh
63ae7cfcbfd3d90017e8f422,Cách Mạng Tháng Tám – Phạm Văn Hai,106.660680770874,10.7890446772791,tth,UP,Quận Tân Bình
5b0e1faacddcc80011ceb449,Nút giao Hàng Xanh 8 (HX-VT),106.711969971657,10.8012804197692,tth,UP,Quận Bình Thạnh
63b65fa9bfd3d90017eaa449,Xô Viết Nghệ Tĩnh - Nguyễn Văn Lạc,106.709818840027,10.7953154258079,tth,UP,Quận Bình Thạnh
6623e7f06f998a001b25244a,Đinh Bộ Lĩnh - Chu Văn An,106.709175109863,10.8105965337175,tth,UP,Quận Bình Thạnh
6623e5066f998a001b252317,Nguyễn Thị Minh Khai - Tôn Thất Tùng,106.687191724777,10.7712645500069,tth,UP,Quận 3
662b5c141afb9c00172d93d7,Tân Kỳ Tân Quý - Bình Long,106.613742113113,10.7965800987319,tth,UP,Quận Tân Phú
66b1c158779f740018673eb4,Hùng Vương - Lê Hồng Phong,106.676441431046,10.7622528812529,tth,UP,Quận 10
56df8381c062921100c143e2,Nguyễn Hữu Thọ - Nguyễn Thị Thập 1,106.700946092606,10.740497286869,tth,UP,Quận 7
5d8cd1f9766c880017188938,Nguyễn Tri Phương - Trần Phú,106.669569611549,10.7535782368426,tth_axis,UP,Quận 5
6623e61d6f998a001b252377,Cách Mạng Tháng Tám - Rạch Bùng Binh,106.678587198257,10.7794538677567,tth,UP,Quận 3
595da2dd3dcfc400106f2885,Quốc lộ 1 - Đường 15 (2),106.698709130287,10.8601177777294,tth,UP,Quận 12
6623f1996f998a001b252805,Mai Chí Thọ - Xa Lộ Hà Nội (3),106.756038665771,10.809194919668,tth,UP,Thành phố Thủ Đức
5deb576d1dc17d7c5515acf5,Nút giao Ngã bảy Lý Thái Tổ,106.674596,10.767428,tth,UP,Quận 10
631955e7c9eae60017a1c30a,Cách Mạng Tháng Tám – Hòa Hưng,106.677144169807,10.7802232516687,tth,UP,Quận 3
5a6060e08576340017d0660f,Nguyễn Thái Sơn - Phan Văn Trị 2,106.689149737358,10.8262720340397,tth,UP,Quận Gò Vấp
63ae7a26bfd3d90017e8f29a,Ba Tháng Hai - Lê Hồng Phong 2,106.672922372818,10.7711380723106,tth,UP,Quận 10
63b548c3bfd3d90017ea77c0,Nguyễn Duy Trinh - Nguyễn Thị Tư,106.806946992874,10.792733368728,tth,UP,Thành phố Thủ Đức
662a8c931afb9c00172d2901,Huỳnh Tấn Phát - Hoàng Quốc Việt,106.736941337585,10.7143336880567,tth,UP,Quận 7
58df4adedc195800111e04b4,Phổ Quang - Huỳnh Lan Khanh,106.666592359543,10.8049689609963,tth,UP,Quận Tân Bình
59ca301902eb490011a0a400,QL1 - Hương Lộ 2 (1),106.591292023659,10.7702369171868,tth,UP,Quận Bình Tân
584e738361cfea0012cf6951,Quốc lộ 1 - Nguyễn Thị Tú,106.600910425186,10.8161291568165,tth,UP,Quận Bình Tân
583f958161cfea0012cf68f5,Nguyễn Thị Định - Đường C,106.779872775078,10.7660209509751,tth,UP,Thành phố Thủ Đức
5a8253615058170011f6eabf,Đinh Bộ Lĩnh - Bạch Đằng 1,106.710022687912,10.8030720025958,tth,UP,Quận Bình Thạnh
5deb576d1dc17d7c5515ad0f,Nguyễn Thị Minh Khai - Trương Định,106.691731,10.776014,tth,UP,Quận 1
662b51761afb9c00172d88ef,Hương Lộ 3 - Đường kênh 19/5,106.610062122345,10.8029560769717,tth,UP,Quận Tân Phú
66b1c370779f7400186740b3,Thành Thái - Tô Hiến Thành,106.663513183594,10.7763868520664,tth,UP,Quận 10
6623ec376f998a001b252671,Tô Ký - Nguyễn Văn Quá,106.635167598724,10.8474892954581,tth,UP,Quận 12
5d9dde1f766c880017188c98,Nút giao Hàng Xanh 3 (Cầu Thị Nghè - Hàng Xanh),106.711294054985,10.8001422321862,tth,UP,Quận Bình Thạnh
58b5528e17139d0010f35d52,Xa Lộ Hà Nội - Đường D400,106.807773113251,10.8719449708741,tth,UP,Thành phố Thủ Đức
5deb576d1dc17d7c5515ad22,Nút giao Ngã sáu Nguyễn Tri Phương,106.669124,10.76009,tth,UP,Quận 10
63b664d2bfd3d90017eaaa0f,CT Trung Lương - Võ Trần Chí 1,106.571159362793,10.6852580285724,tth,UP,Huyện Bình Chánh
662b85031afb9c00172dd0dc,Lê Lợi - Phan Bội Châu,106.698939800262,10.772307988975,tth,UP,Quận 1
58d7b5a7c1e33c00112b320a,Nút giao Chợ Đệm 1 (CT Trung Lương - Bùi Thanh Khiết),106.576287746429,10.6859643956044,tth,UP,Huyện Bình Chánh
662a8f3a1afb9c00172d2b31,Nguyễn Hữu Thọ - Đường số 15,106.701600551605,10.7445238765742,tth,UP,Quận 7
58aff01fbd82540010390c50,Quốc lộ 1 - Bùi Thanh Khiết 2,106.58026278019,10.6737028958529,tth,UP,Huyện Bình Chánh
5d8cdb9f766c880017188968,Hoàng Văn Thụ - Trần Huy Liệu,106.677471399307,10.7993728992472,tth_axis,UP,Quận Phú Nhuận
5a6085fb8576340017d06686,QL1-Tỉnh lộ 10B (1),106.593507528305,10.7499628496621,tth,UP,Quận Bình Tân
5a8253bc5058170011f6eac1,Đinh Bộ Lĩnh - Bạch Đằng 2,106.709395051003,10.8030930799773,tth,UP,Quận Bình Thạnh
59ca31d602eb490011a0a40b,QL1 - Hồ Học Lãm,106.602809429169,10.7342095859156,tth,UP,Quận Bình Tân
587c782db807da0011e33d3b,Võ Nguyên Giáp - Thảo Điền,106.738277077675,10.8010116814233,tth,UP,Thành phố Thủ Đức
662a8d821afb9c00172d29c8,Nguyễn Thị Thập - Tân Mỹ,106.718316078186,10.7381993660681,tth,UP,Quận 7
63ae7d29bfd3d90017e8f437,Lý Thường Kiệt - Bắc Hải,106.656131744385,10.7778307774358,tth,UP,Quận Tân Bình
56de42f611f398ec0c48129f,Đồng Văn Cống - Nguyễn Thị Định,106.7702866,10.7731722,tth,UP,Thành phố Thủ Đức
662b80b91afb9c00172dcb5b,Nút giao Ngã sáu Phù Đổng 2,106.693022847176,10.7715702042204,tth,UP,Quận 1
5deb576d1dc17d7c5515ad1f,Hùng Vương - Ngô Gia Tự,106.666474342346,10.7563292750288,tth,UP,Quận 5
662b50261afb9c00172d87b2,Dương Bá Trạc - Đường số 9,106.688178777695,10.7420784148825,tth,UP,Quận 8
59ca2d9d02eb490011a0a3f0,QL1 - Phan Văn Hớn 2,106.606961488724,10.8342965190794,tth,UP,Huyện Hóc Môn
5a8256df5058170011f6eacb,BX Miền Đông - Quốc Lộ 13 (2),106.713198423386,10.8172620146729,tth,UP,Quận Bình Thạnh
5deb576d1dc17d7c5515acfc,Điện Biên Phủ - Trương Định,106.68729364872,10.7800124617515,tth,UP,Quận 3
587c8c20b807da0011e33d47,Hoàng Văn Thụ - Hồ Văn Huê,106.674934029579,10.7994466709843,tth,UP,Quận Phú Nhuận
58744fb0b807da0011e33cc0,Hưng Phú - Chánh Hưng 2,106.669129729271,10.7463895818732,tth,UP,Quận 8
5822f23aedeb6c0012a2d6a8,Hồng Bàng - Nguyễn Thị Nhỏ,106.651153564453,10.7535518857808,tth,UP,Quận 5
649da495a6068200171a6cb6,Mai Chí Thọ - Trần Quý Kiên (3),106.740009784698,10.7817936319045,tth,UP,Thành phố Thủ Đức